[
  {
    "name": "RISING SUN LANE/ BRANDYWINE CREEK",
    "route": 279,
    "milepost": 0.44,
    "town": "Hazel Green village",
    "county": "New Castle County",
    "intersection": "BRANDYWINE CREEK",
    "structure": "1001 279",
    "latlong": "39.460947, -75.343612"
  },
  {
    "name": "RISING SUN LANE/ BRANDYWINE CREEK",
    "route": 279,
    "milepost": 0.44,
    "town": "Hazel Green village",
    "county": "New Castle County",
    "intersection": "BRANDYWINE CREEK",
    "structure": "1001A279",
    "latlong": "39.460836, -75.343689"
  },
  {
    "name": "PENNSYLVANIA /SR52/ WATERWAY & ABANDON R.R.",
    "route": 52,
    "milepost": 5.12,
    "town": "Yauco Municipio",
    "county": "New Castle County",
    "intersection": "WATERWAY & ABANDON R.R.",
    "structure": "1001B009",
    "latlong": "39.46037, -75.350825"
  },
  {
    "name": "ROCKLAND RD/ BRANDYWINE CREEK",
    "route": 232,
    "milepost": 2.28,
    "town": "Yauco Municipio",
    "county": "New Castle County",
    "intersection": "BRANDYWINE CREEK",
    "structure": "1002 232",
    "latlong": "39.474915, -75.343027"
  },
  {
    "name": "THOMPSON BRIDGE RD/ BRANDYWINE CREEK",
    "route": 92,
    "milepost": 3.77,
    "town": "Gresham village",
    "county": "New Castle County",
    "intersection": "BRANDYWINE CREEK",
    "structure": "1003 225",
    "latlong": "39.490118, -75.34116"
  },
  {
    "name": "BRANDYWINE CREEK R/ TRIB. TO BRANDYWINE",
    "route": 221,
    "milepost": 2.79,
    "town": "Belle Fourche city",
    "county": "New Castle County",
    "intersection": "TRIB. TO BRANDYWINE",
    "structure": "1008 221",
    "latlong": "39.50061, -75.34332"
  },
  {
    "name": "SMITH BRIDGE RD/ BRANDYWINE CREEK",
    "route": 221,
    "milepost": 2.51,
    "town": "Belle Fourche city",
    "county": "New Castle County",
    "intersection": "BRANDYWINE CREEK",
    "structure": "1009 221",
    "latlong": "39.501584, -75.344477"
  },
  {
    "name": "POWDER MILL/SR141/ ROCKLAND ROAD",
    "route": 141,
    "milepost": 2.1,
    "town": "Brandt town",
    "county": "New Castle County",
    "intersection": "ROCKLAND ROAD",
    "structure": "1011N267",
    "latlong": "39.470345, -75.333013"
  },
  {
    "name": "SR141S/POWDER MILL/ ROCKLAND ROAD",
    "route": 141,
    "milepost": 3.45,
    "town": "Brandt town",
    "county": "New Castle County",
    "intersection": "ROCKLAND ROAD",
    "structure": "1011S267",
    "latlong": "39.470403, -75.333065"
  },
  {
    "name": "BEAVER DAM RD./ TRIB. TO BRANDYWINE CRK",
    "route": 221,
    "milepost": 3.01,
    "town": "Belle Fourche city",
    "county": "New Castle County",
    "intersection": "TRIB. TO BRANDYWINE CRK",
    "structure": "1014 221",
    "latlong": "39.501411, -75.342397"
  },
  {
    "name": "BEAVER DAM RD./ BEAVER VALLEY CREEK",
    "route": 221,
    "milepost": 3.15,
    "town": "Belle Fourche city",
    "county": "New Castle County",
    "intersection": "BEAVER VALLEY CREEK",
    "structure": "1016 221",
    "latlong": "39.502008, -75.341846"
  },
  {
    "name": "BEAVER DAM RD./ BEAVER CREEK TRIBUTARY",
    "route": 221,
    "milepost": 3.55,
    "town": "Belle Fourche city",
    "county": "New Castle County",
    "intersection": "BEAVER CREEK TRIBUTARY",
    "structure": "1017 221",
    "latlong": "39.502168, -75.335646"
  },
  {
    "name": "BEAVER DAM RD/ BEAVER  CREEK",
    "route": 221,
    "milepost": 3.57,
    "town": "Belle Fourche city",
    "county": "New Castle County",
    "intersection": "BEAVER  CREEK",
    "structure": "1018 221",
    "latlong": "39.502102, -75.335342"
  },
  {
    "name": "ROCKLAND RD/ HUSBANDS RUN",
    "route": 232,
    "milepost": 1.08,
    "town": "Yauco Municipio",
    "county": "New Castle County",
    "intersection": "HUSBANDS RUN",
    "structure": "1020 232",
    "latlong": "39.471013, -75.334227"
  },
  {
    "name": "GUYENCOURT RD./ READING RR",
    "route": 231,
    "milepost": 0.17,
    "town": "Gresham village",
    "county": "New Castle County",
    "intersection": "READING RR",
    "structure": "1023A231",
    "latlong": "39.485945, -75.35066"
  },
  {
    "name": "CONCORD PK/US202/ ROCKY RUN",
    "route": 202,
    "milepost": 4.47,
    "town": "Coon Valley village",
    "county": "New Castle County",
    "intersection": "ROCKY RUN",
    "structure": "1024 004",
    "latlong": "39.485815, -75.325663"
  },
  {
    "name": "FOULK RD/SR261/ S. BRANCH NAAMANS CREEK",
    "route": 261,
    "milepost": 4.1,
    "town": "Mattoon village",
    "county": "New Castle County",
    "intersection": "S. BRANCH NAAMANS CREEK",
    "structure": "1026 203",
    "latlong": "39.493283, -75.300223"
  },
  {
    "name": "FOULK RD/SR261/ SOUTH BRANCH NAAMANS CK",
    "route": 261,
    "milepost": 3.21,
    "town": "Fontana-on-Geneva Lake village",
    "county": "New Castle County",
    "intersection": "SOUTH BRANCH NAAMANS CK",
    "structure": "1032 203",
    "latlong": "39.485399, -75.303271"
  },
  {
    "name": "FOULK RD/SR261/ SHELLPOT CREEK",
    "route": 261,
    "milepost": 1.54,
    "town": "Mishicot village",
    "county": "New Castle County",
    "intersection": "SHELLPOT CREEK",
    "structure": "1033 203",
    "latlong": "39.474255, -75.313823"
  },
  {
    "name": "FOULK RD / SR261/ MATSON RUN",
    "route": 203,
    "milepost": 0.5,
    "town": "Delavan city",
    "county": "New Castle County",
    "intersection": "MATSON RUN",
    "structure": "1035 203",
    "latlong": "39.46588, -75.32204"
  },
  {
    "name": "GRUBB RD/ TRIB. TO NAAMANS CREEK",
    "route": 209,
    "milepost": 1.52,
    "town": "Grafton village",
    "county": "New Castle County",
    "intersection": "TRIB. TO NAAMANS CREEK",
    "structure": "1038 209",
    "latlong": "39.485917, -75.302069"
  },
  {
    "name": "BAYNARD BLVD./ SHELLPOT CREEK",
    "route": 206,
    "milepost": 0.39,
    "town": "Yauco Municipio",
    "county": "New Castle County",
    "intersection": "SHELLPOT CREEK",
    "structure": "1041 206",
    "latlong": "39.470499, -75.304119"
  },
  {
    "name": "WELDIN RD/ TURKEY RUN",
    "route": 215,
    "milepost": 0.88,
    "town": "Fredonia village",
    "county": "New Castle County",
    "intersection": "TURKEY RUN",
    "structure": "1043 215",
    "latlong": "39.464922, -75.313626"
  },
  {
    "name": "WASHINGTON ST EXT/ SHELLPOT CREEK",
    "route": 43,
    "milepost": 3.06,
    "town": "Yauco Municipio",
    "county": "New Castle County",
    "intersection": "SHELLPOT CREEK",
    "structure": "1043B043",
    "latlong": "39.46134, -75.310459"
  },
  {
    "name": "SHIPLEY RD./ SHELLPOT CREEK",
    "route": 214,
    "milepost": 0.61,
    "town": "Necedah village",
    "county": "New Castle County",
    "intersection": "SHELLPOT CREEK",
    "structure": "1044 214",
    "latlong": "39.461952, -75.310231"
  },
  {
    "name": "SHOPPING CENTER RD/ NAAMANS CREEK",
    "route": null,
    "milepost": 0,
    "town": "Mauston city",
    "county": "New Castle County",
    "intersection": "NAAMANS CREEK",
    "structure": "1045 000",
    "latlong": "39.492571, -75.29539"
  },
  {
    "name": "WILSON ROAD/ SHELLPOT CREEK",
    "route": 210,
    "milepost": 1.38,
    "town": "Gratiot village",
    "county": "New Castle County",
    "intersection": "SHELLPOT CREEK",
    "structure": "1048 210",
    "latlong": "39.473224, -75.311679"
  },
  {
    "name": "HARVEY ROAD/ CSX RAILROAD",
    "route": 209,
    "milepost": 3.16,
    "town": "Andover town",
    "county": "New Castle County",
    "intersection": "CSX RAILROAD",
    "structure": "1051A209",
    "latlong": "39.481495, -75.285179"
  },
  {
    "name": "NAAMANS RD / SR92/ NAAMANS CREEK",
    "route": 92,
    "milepost": 2.48,
    "town": "Altamont town",
    "county": "New Castle County",
    "intersection": "NAAMANS CREEK",
    "structure": "1052A017",
    "latlong": "39.4928, -75.295517"
  },
  {
    "name": "DARLEY RD/ NAAMANS CREEK",
    "route": 207,
    "milepost": 1.65,
    "town": "Arlington city",
    "county": "New Castle County",
    "intersection": "NAAMANS CREEK",
    "structure": "1054 207",
    "latlong": "39.483672, -75.273319"
  },
  {
    "name": "NAAMANS RD / SR92/ NAAMANS CREEK",
    "route": 92,
    "milepost": 5.35,
    "town": "Mazomanie village",
    "county": "New Castle County",
    "intersection": "NAAMANS CREEK",
    "structure": "1054A017",
    "latlong": "39.484721, -75.264583"
  },
  {
    "name": "DARLEY RD/ NAAMANS CREEK",
    "route": 207,
    "milepost": 1.78,
    "town": "Canton city",
    "county": "New Castle County",
    "intersection": "NAAMANS CREEK",
    "structure": "1055 207",
    "latlong": "39.483111, -75.272688"
  },
  {
    "name": "DARLEY RD/ NAAMANS CREEK",
    "route": 207,
    "milepost": 1.9,
    "town": "Canton city",
    "county": "New Castle County",
    "intersection": "NAAMANS CREEK",
    "structure": "1056 207",
    "latlong": "39.482598, -75.272248"
  },
  {
    "name": "PHILADELPHIA PIKE/ NAAMANS CREEK/HAUL ROAD",
    "route": 13,
    "milepost": 8.02,
    "town": "Marshfield city",
    "county": "New Castle County",
    "intersection": "NAAMANS CREEK/HAUL ROAD",
    "structure": "1057A024",
    "latlong": "39.48347, -75.263363"
  },
  {
    "name": "MILLER RD./ MATSON RUN",
    "route": 217,
    "milepost": 1.39,
    "town": "Fredonia village",
    "county": "New Castle County",
    "intersection": "MATSON RUN",
    "structure": "1058 217",
    "latlong": "39.461892, -75.314588"
  },
  {
    "name": "COACHMANS RD/ SHELLPOT CREEK",
    "route": null,
    "milepost": 0.09,
    "town": "Yauco Municipio",
    "county": "New Castle County",
    "intersection": "SHELLPOT CREEK",
    "structure": "1059 000",
    "latlong": "39.475994, -75.315532"
  },
  {
    "name": "GLENROCK DR/ SOUTH BRANCH NAAMANS CK",
    "route": null,
    "milepost": 0.46,
    "town": "Yauco Municipio",
    "county": "New Castle County",
    "intersection": "SOUTH BRANCH NAAMANS CK",
    "structure": "1061 000",
    "latlong": "39.48147, -75.2814"
  },
  {
    "name": "STONE CROP DR/ SOUTH BRANCH NAAMANS CRE",
    "route": null,
    "milepost": 0.3,
    "town": "Yauco Municipio",
    "county": "New Castle County",
    "intersection": "SOUTH BRANCH NAAMANS CRE",
    "structure": "1062 000",
    "latlong": "39.494666, -75.301928"
  },
  {
    "name": "LINCOLN AVE/ TRIB OF HOLLY OAK CREEK",
    "route": null,
    "milepost": 0.6,
    "town": "Dallas town",
    "county": "New Castle County",
    "intersection": "TRIB OF HOLLY OAK CREEK",
    "structure": "1063 000",
    "latlong": "39.473123, -75.282892"
  },
  {
    "name": "STATE PARK ENTRANC/ WILSON RUN",
    "route": null,
    "milepost": 0,
    "town": "Yauco Municipio",
    "county": "New Castle County",
    "intersection": "WILSON RUN",
    "structure": "1067 000",
    "latlong": "39.480486, -75.350032"
  },
  {
    "name": "ROCKLAND RD/ WILSON RUN",
    "route": 235,
    "milepost": 0.89,
    "town": "Yauco Municipio",
    "county": "New Castle County",
    "intersection": "WILSON RUN",
    "structure": "1068 235",
    "latlong": "39.47489, -75.34322"
  },
  {
    "name": "ADAMS DAM RD/ WILSON RUN",
    "route": 232,
    "milepost": 2.39,
    "town": "Yauco Municipio",
    "county": "New Castle County",
    "intersection": "WILSON RUN",
    "structure": "1069 232",
    "latlong": "39.475291, -75.343541"
  },
  {
    "name": "MONTCHANIN R/SR100/ TRIB. TO WILSONS RUN",
    "route": 100,
    "milepost": 3.11,
    "town": "Yauco Municipio",
    "county": "New Castle County",
    "intersection": "TRIB. TO WILSONS RUN",
    "structure": "1071 232",
    "latlong": "39.481201, -75.351706"
  },
  {
    "name": "NAAMANS RD/SR92/ CSX RAILROAD",
    "route": 92,
    "milepost": 4.36,
    "town": "La Valle village",
    "county": "New Castle County",
    "intersection": "CSX RAILROAD",
    "structure": "1073C017",
    "latlong": "39.490811, -75.275085"
  },
  {
    "name": "NAAMANS RD/SR92/ CSX RAILROAD",
    "route": 92,
    "milepost": 4.31,
    "town": "La Valle village",
    "county": "New Castle County",
    "intersection": "CSX RAILROAD",
    "structure": "1073D017",
    "latlong": "39.490851, -75.275038"
  },
  {
    "name": "DARLEY RD/ CSX RAILROAD",
    "route": 207,
    "milepost": 1.03,
    "town": "Ironton village",
    "county": "New Castle County",
    "intersection": "CSX RAILROAD",
    "structure": "1074C207",
    "latlong": "39.485107, -75.281033"
  },
  {
    "name": "CONCORD PIKE/US202/ FAULK RD.",
    "route": 202,
    "milepost": 1.75,
    "town": "Brandt town",
    "county": "New Castle County",
    "intersection": "FAULK RD.",
    "structure": "1077 004",
    "latlong": "39.463956, -75.3241"
  },
  {
    "name": "CONCORD PIKE/US202/ EAST PARK DR.",
    "route": 202,
    "milepost": 1.4,
    "town": "Brandt town",
    "county": "New Castle County",
    "intersection": "EAST PARK DR.",
    "structure": "1079 004",
    "latlong": "39.462989, -75.323923"
  },
  {
    "name": "SNUFF MILL RD/ BARROWS RUN",
    "route": 244,
    "milepost": 0.08,
    "town": "Mount Horeb village",
    "county": "New Castle County",
    "intersection": "BARROWS RUN",
    "structure": "1088 244",
    "latlong": "39.491273, -75.384131"
  },
  {
    "name": "OLD KENNET PIKE RD/ WATERWAY",
    "route": 243,
    "milepost": 1.52,
    "town": "Mount Horeb village",
    "county": "New Castle County",
    "intersection": "WATERWAY",
    "structure": "1097 243",
    "latlong": "39.490226, -75.380685"
  },
  {
    "name": "OLD KENNETT RD/ BARROWS RUN",
    "route": 243,
    "milepost": 1.93,
    "town": "Mount Sterling village",
    "county": "New Castle County",
    "intersection": "BARROWS RUN",
    "structure": "1099 243",
    "latlong": "39.490577, -75.383398"
  },
  {
    "name": "PRIVATE/PARK ROAD/ RED CLAY CREEK",
    "route": null,
    "milepost": 0.14,
    "town": "Avon city",
    "county": "New Castle County",
    "intersection": "RED CLAY CREEK",
    "structure": "1103 000",
    "latlong": "39.482934, -75.405286"
  },
  {
    "name": "WAY ROAD/ TRIB OF RED CLAY CREEK",
    "route": 241,
    "milepost": 0.37,
    "town": "Armour city",
    "county": "New Castle County",
    "intersection": "TRIB OF RED CLAY CREEK",
    "structure": "1105 241",
    "latlong": "39.481199, -75.384049"
  },
  {
    "name": "BENGE RD./ RED CLAY CREEK",
    "route": 253,
    "milepost": 2.21,
    "town": "Yauco Municipio",
    "county": "New Castle County",
    "intersection": "RED CLAY CREEK",
    "structure": "1111 253",
    "latlong": "39.482269, -75.404933"
  },
  {
    "name": "YORKLYN RD/ RED CLAY CREEK",
    "route": 257,
    "milepost": 1.92,
    "town": "Yauco Municipio",
    "county": "New Castle County",
    "intersection": "RED CLAY CREEK",
    "structure": "1112 257",
    "latlong": "39.482888, -75.403335"
  },
  {
    "name": "BARLEY MILL RD./ RED CLAY CREEK",
    "route": 258,
    "milepost": 1.57,
    "town": "Armour city",
    "county": "New Castle County",
    "intersection": "RED CLAY CREEK",
    "structure": "1118 258",
    "latlong": "39.475367, -75.392828"
  },
  {
    "name": "CREEK RD/SR82/ RED CLAY CREEK",
    "route": 82,
    "milepost": 2,
    "town": "Armour city",
    "county": "New Castle County",
    "intersection": "RED CLAY CREEK",
    "structure": "1119 261",
    "latlong": "39.480481, -75.391534"
  },
  {
    "name": "CREEK RD/SR82/ RED CLAY CREEK",
    "route": 82,
    "milepost": 1.9,
    "town": "Armour city",
    "county": "New Castle County",
    "intersection": "RED CLAY CREEK",
    "structure": "1120 261",
    "latlong": "39.480534, -75.390805"
  },
  {
    "name": "SHARPLESS RD/ RED CLAY CREEK",
    "route": 251,
    "milepost": 1.52,
    "town": "Armour city",
    "county": "New Castle County",
    "intersection": "RED CLAY CREEK",
    "structure": "1127 251",
    "latlong": "39.480882, -75.394368"
  },
  {
    "name": "WOODDALE RD/ MILL RACE",
    "route": 258,
    "milepost": 1.65,
    "town": "Armour city",
    "county": "New Castle County",
    "intersection": "MILL RACE",
    "structure": "1128 258",
    "latlong": "39.475757, -75.392645"
  },
  {
    "name": "MT CUBA ROAD/ RED CLAY CREEK",
    "route": 261,
    "milepost": 0.44,
    "town": "Marquette village",
    "county": "New Castle County",
    "intersection": "RED CLAY CREEK",
    "structure": "1130 261",
    "latlong": "39.471041, -75.382306"
  },
  {
    "name": "BARLEY MILL RD/ RED CLAY CREEK",
    "route": 259,
    "milepost": 0.42,
    "town": "Marquette village",
    "county": "New Castle County",
    "intersection": "RED CLAY CREEK",
    "structure": "1135 259",
    "latlong": "39.463074, -75.382543"
  },
  {
    "name": "COVERED BRIDGE RD/ RED CLAY CREEK",
    "route": "0263A",
    "milepost": 0.03,
    "town": "Yauco Municipio",
    "county": "New Castle County",
    "intersection": "RED CLAY CREEK",
    "structure": "1137 263A",
    "latlong": "39.455686, -75.381322"
  },
  {
    "name": "LANCASTER PK/SR48/ RED CLAY CREEK",
    "route": 48,
    "milepost": 4.85,
    "town": "Yauco Municipio",
    "county": "New Castle County",
    "intersection": "RED CLAY CREEK",
    "structure": "1138 237",
    "latlong": "39.454566, -75.381034"
  },
  {
    "name": "CENTER RD/SR141/ LITTLE MILL CREEK",
    "route": 141,
    "milepost": 0.43,
    "town": "Canton city",
    "county": "New Castle County",
    "intersection": "LITTLE MILL CREEK",
    "structure": "1143 271",
    "latlong": "39.443376, -75.365275"
  },
  {
    "name": "FAULKLAND RD/SR34/ LITTLE MILL CREEK",
    "route": 34,
    "milepost": 1.72,
    "town": "Yauco Municipio",
    "county": "New Castle County",
    "intersection": "LITTLE MILL CREEK",
    "structure": "1145 270",
    "latlong": "39.445312, -75.370561"
  },
  {
    "name": "FAULKLAND RD/SR34/ RED CLAY CREEK",
    "route": 34,
    "milepost": 0.7,
    "town": "Bruce city",
    "county": "New Castle County",
    "intersection": "RED CLAY CREEK",
    "structure": "1147 270",
    "latlong": "39.445153, -75.381089"
  },
  {
    "name": "GREENBANK RD/ RED CLAY CREEK",
    "route": 330,
    "milepost": 1.88,
    "town": "Clear Lake city",
    "county": "New Castle County",
    "intersection": "RED CLAY CREEK",
    "structure": "1148A330",
    "latlong": "39.442311, -75.375674"
  },
  {
    "name": "NEWPORT GAP PIKE/ RED CLAY CREEK",
    "route": 41,
    "milepost": 0.65,
    "town": "Clear Lake city",
    "county": "New Castle County",
    "intersection": "RED CLAY CREEK",
    "structure": "1149 021",
    "latlong": "39.442001, -75.380341"
  },
  {
    "name": "NEW ROAD/ WATERWAY",
    "route": "0011B",
    "milepost": 0.1,
    "town": "Ettrick village",
    "county": "New Castle County",
    "intersection": "WATERWAY",
    "structure": "1150 011B",
    "latlong": "39.442717, -75.350655"
  },
  {
    "name": "NEW ROAD/ LITTLE MILL CREEK",
    "route": "0011C",
    "milepost": 0.24,
    "town": "Ettrick village",
    "county": "New Castle County",
    "intersection": "LITTLE MILL CREEK",
    "structure": "1151 011C",
    "latlong": "39.442361, -75.35372"
  },
  {
    "name": "KIRKWOOD HWY/SR2/ CHESTNUT RUN",
    "route": 2,
    "milepost": 12.16,
    "town": "Ettrick village",
    "county": "New Castle County",
    "intersection": "CHESTNUT RUN",
    "structure": "1152 011",
    "latlong": "39.441938, -75.361674"
  },
  {
    "name": "KIRKWOOD HWY/SR2/ LITTLE MILL CREEK",
    "route": 2,
    "milepost": 12.12,
    "town": "Fremont village",
    "county": "New Castle County",
    "intersection": "LITTLE MILL CREEK",
    "structure": "1153 011",
    "latlong": "39.441821, -75.362755"
  },
  {
    "name": "MEADOWBROOK AVE/ WATERWAY",
    "route": null,
    "milepost": 0,
    "town": "Kenosha city",
    "county": "New Castle County",
    "intersection": "WATERWAY",
    "structure": "1154 000",
    "latlong": "39.432683, -75.373037"
  },
  {
    "name": "OLD CAPITAL TRAIL/ RED CLAY CREEK",
    "route": 12,
    "milepost": 1.03,
    "town": "Little Chute village",
    "county": "New Castle County",
    "intersection": "RED CLAY CREEK",
    "structure": "1155 012",
    "latlong": "39.434213, -75.381246"
  },
  {
    "name": "KIAMENSI RD/ RED CLAY CREEK",
    "route": 331,
    "milepost": 0.3,
    "town": "Glen Flora village",
    "county": "New Castle County",
    "intersection": "RED CLAY CREEK",
    "structure": "1156 331",
    "latlong": "39.432839, -75.380324"
  },
  {
    "name": "MITCH RD / SR4/ RED CLAY CREEK",
    "route": 4,
    "milepost": 8.04,
    "town": "Yauco Municipio",
    "county": "New Castle County",
    "intersection": "RED CLAY CREEK",
    "structure": null,
    "latlong": "39.425443, -75.382449"
  },
  {
    "name": "SR4 WESTBOUND/ RED CLAY CREEK",
    "route": 4,
    "milepost": 17.97,
    "town": "Yauco Municipio",
    "county": "New Castle County",
    "intersection": "RED CLAY CREEK",
    "structure": "1157W336",
    "latlong": "39.425667, -75.38249"
  },
  {
    "name": "JAMES ST./ CHRISTINA RIVER",
    "route": 327,
    "milepost": 1.36,
    "town": "Mequon city",
    "county": "New Castle County",
    "intersection": "CHRISTINA RIVER",
    "structure": "1159 327",
    "latlong": "39.42378, -75.363165"
  },
  {
    "name": "MARYLAND AVE/SR4/ LITTLE MILL CREEK",
    "route": 4,
    "milepost": 5.31,
    "town": "Cavour town",
    "county": "New Castle County",
    "intersection": "LITTLE MILL CREEK",
    "structure": "1160 336",
    "latlong": "39.435525, -75.34496"
  },
  {
    "name": "OLD DUPONT RD./ LITTLE MILL CREEK",
    "route": "0027A",
    "milepost": 0.09,
    "town": "Ettrick village",
    "county": "New Castle County",
    "intersection": "LITTLE MILL CREEK",
    "structure": "1161 027A",
    "latlong": "39.440514, -75.351332"
  },
  {
    "name": "NEWPORT GAP PIKE/ HYDE RUN",
    "route": 41,
    "milepost": 1.77,
    "town": "Ingram village",
    "county": "New Castle County",
    "intersection": "HYDE RUN",
    "structure": "1162 021",
    "latlong": "39.443332, -75.383029"
  },
  {
    "name": "NEWPORT GAP PK/ HYDE RUN",
    "route": 41,
    "milepost": 2.15,
    "town": "Ingram village",
    "county": "New Castle County",
    "intersection": "HYDE RUN",
    "structure": "1163 021",
    "latlong": "39.445042, -75.384739"
  },
  {
    "name": "HERCULES RD/ HYDE RUN",
    "route": 282,
    "milepost": 0.93,
    "town": "Yauco Municipio",
    "county": "New Castle County",
    "intersection": "HYDE RUN",
    "structure": "1166 282",
    "latlong": "39.451212, -75.390714"
  },
  {
    "name": "SEARS BLVD/ HERSHEY RUN",
    "route": "0090A",
    "milepost": 0.1,
    "town": "Glenwood City city",
    "county": "New Castle County",
    "intersection": "HERSHEY RUN",
    "structure": "1167 090A",
    "latlong": "39.423054, -75.375712"
  },
  {
    "name": "OLD WILMINGTON RD./ WILM & WEST R/R",
    "route": 275,
    "milepost": 2.64,
    "town": "Lyndon Station village",
    "county": "New Castle County",
    "intersection": "WILM & WEST R/R",
    "structure": "1172A275",
    "latlong": "39.472682, -75.411144"
  },
  {
    "name": "BRACKENVILLE RD/ MILL CREEK",
    "route": 274,
    "milepost": 0.03,
    "town": "Canton city",
    "county": "New Castle County",
    "intersection": "MILL CREEK",
    "structure": "1177 274",
    "latlong": "39.463117, -75.412418"
  },
  {
    "name": "MILL CREEK RD/ MILL CREEK",
    "route": 282,
    "milepost": 4.85,
    "town": "Hewitt village",
    "county": "New Castle County",
    "intersection": "MILL CREEK",
    "structure": "1179 282",
    "latlong": "39.464897, -75.414903"
  },
  {
    "name": "GRANT AVE./ MILL CREEK",
    "route": null,
    "milepost": 0.15,
    "town": "Hortonville village",
    "county": "New Castle County",
    "intersection": "MILL CREEK",
    "structure": "1180 000",
    "latlong": "39.470547, -75.420064"
  },
  {
    "name": "FAULKLAND RD/ HYDE RUN",
    "route": 270,
    "milepost": 0.14,
    "town": "Ingram village",
    "county": "New Castle County",
    "intersection": "HYDE RUN",
    "structure": "1182 270",
    "latlong": "39.444257, -75.384655"
  },
  {
    "name": "MILL CREEK RD/ MILL CREEK",
    "route": 282,
    "milepost": 3.21,
    "town": "Highland village",
    "county": "New Castle County",
    "intersection": "MILL CREEK",
    "structure": "1184 282",
    "latlong": "39.454705, -75.410104"
  },
  {
    "name": "MERMAID STONEY BAT/ MILL CREEK",
    "route": 283,
    "milepost": 1,
    "town": "McFarland village",
    "county": "New Castle County",
    "intersection": "MILL CREEK",
    "structure": "1187 283",
    "latlong": "39.450178, -75.404561"
  },
  {
    "name": "ELDERON DRIVE/ TRIB OF MILL CREEK",
    "route": null,
    "milepost": 0,
    "town": "Andover town",
    "county": "New Castle County",
    "intersection": "TRIB OF MILL CREEK",
    "structure": "1188 000",
    "latlong": "39.441189, -75.401383"
  },
  {
    "name": "FAWKES DRIVE/ TRIB OF MILL CREEK",
    "route": null,
    "milepost": 0,
    "town": "Andover town",
    "county": "New Castle County",
    "intersection": "TRIB OF MILL CREEK",
    "structure": "1189 000",
    "latlong": "39.440904, -75.401777"
  },
  {
    "name": "LIMESTONE RD / SR7/ MILL CREEK",
    "route": 7,
    "milepost": 2.07,
    "town": "Madison city",
    "county": "New Castle County",
    "intersection": "MILL CREEK",
    "structure": "1190 031",
    "latlong": "39.440131, -75.402511"
  },
  {
    "name": "MILLTOWN RD/ MILL CREEK",
    "route": 318,
    "milepost": 1.06,
    "town": "Madison city",
    "county": "New Castle County",
    "intersection": "MILL CREEK",
    "structure": "1191 318",
    "latlong": "39.434707, -75.400663"
  },
  {
    "name": "OLD MILLTOWN RD./ MILL CREEK",
    "route": "0318C",
    "milepost": 0.12,
    "town": "Madison city",
    "county": "New Castle County",
    "intersection": "MILL CREEK",
    "structure": "1192 318C",
    "latlong": "39.434666, -75.400378"
  },
  {
    "name": "NEWPORT RD./ RED CLAY CREEK",
    "route": 332,
    "milepost": 0.65,
    "town": "Little Chute village",
    "county": "New Castle County",
    "intersection": "RED CLAY CREEK",
    "structure": "1193 332",
    "latlong": "39.434766, -75.381168"
  },
  {
    "name": "PIKE CREEK RD./ PIKE CREEK",
    "route": 316,
    "milepost": 0.9,
    "town": "Luck village",
    "county": "New Castle County",
    "intersection": "PIKE CREEK",
    "structure": "1196 316",
    "latlong": "39.424865, -75.414286"
  },
  {
    "name": "NEW LINDEN HILL RD/ PIKE CREEK",
    "route": 321,
    "milepost": 0.9,
    "town": "Exeland village",
    "county": "New Castle County",
    "intersection": "PIKE CREEK",
    "structure": "1200 321",
    "latlong": "39.431897, -75.41552"
  },
  {
    "name": "BEECH HILL DR/ PIKE CREEK",
    "route": null,
    "milepost": 0.1,
    "town": "Milton city",
    "county": "New Castle County",
    "intersection": "PIKE CREEK",
    "structure": "1201 000",
    "latlong": "39.450761, -75.432614"
  },
  {
    "name": "GRANVILLE RD/ PIKE CREEK",
    "route": 298,
    "milepost": 0.01,
    "town": "Newburg village",
    "county": "New Castle County",
    "intersection": "PIKE CREEK",
    "structure": "1202 298",
    "latlong": "39.44258, -75.424207"
  },
  {
    "name": "PAPERMILL RD/SR 72/ PIKE CREEK",
    "route": 72,
    "milepost": 5.01,
    "town": "New Richmond city",
    "county": "New Castle County",
    "intersection": "PIKE CREEK",
    "structure": "1203 013",
    "latlong": "39.444502, -75.430224"
  },
  {
    "name": "KIRKWOOD HWY/SR2/ PIKE CREEK",
    "route": 2,
    "milepost": 6.67,
    "town": "Luck village",
    "county": "New Castle County",
    "intersection": "PIKE CREEK",
    "structure": "1211A011",
    "latlong": "39.420973, -75.413906"
  },
  {
    "name": "UPPER PIKE CREEK R/ PIKE CREEK",
    "route": 322,
    "milepost": 0.31,
    "town": "Luck village",
    "county": "New Castle County",
    "intersection": "PIKE CREEK",
    "structure": "1212 322",
    "latlong": "39.422465, -75.41426"
  },
  {
    "name": "GREEN VALLEY DR./ PIKE CREEK",
    "route": null,
    "milepost": 0.1,
    "town": "Yauco Municipio",
    "county": "New Castle County",
    "intersection": "PIKE CREEK",
    "structure": "1213 000",
    "latlong": "39.420403, -75.4135"
  },
  {
    "name": "CHAMBERS ROCK RD/ WHITE CLAY CREEK",
    "route": 329,
    "milepost": 0.45,
    "town": "Cumberland city",
    "county": "New Castle County",
    "intersection": "WHITE CLAY CREEK",
    "structure": "1216 329",
    "latlong": "39.435813, -75.453549"
  },
  {
    "name": "HOPKINS RD./ WHITE CLAY CREEK",
    "route": 302,
    "milepost": 1.11,
    "town": "McFarland village",
    "county": "New Castle County",
    "intersection": "WHITE CLAY CREEK",
    "structure": "1218 302",
    "latlong": "39.432861, -75.455733"
  },
  {
    "name": "MALL RD/ SR 1",
    "route": "0336A",
    "milepost": 0.16,
    "town": "Crooks city",
    "county": "New Castle County",
    "intersection": "SR 1",
    "structure": "1222 336A",
    "latlong": "39.402613, -75.391565"
  },
  {
    "name": "MALL ENTRANCE/ KOREAN WAR VET MEM HGWY",
    "route": 1,
    "milepost": 0,
    "town": "Edgerton city",
    "county": "New Castle County",
    "intersection": "KOREAN WAR VET MEM HGWY",
    "structure": "1223 6278",
    "latlong": "39.40356, -75.39208"
  },
  {
    "name": "FOX DEN RD./ MIDDLE RUN",
    "route": 325,
    "milepost": 0.64,
    "town": "Lyndon Station village",
    "county": "New Castle County",
    "intersection": "MIDDLE RUN",
    "structure": "1224 325",
    "latlong": "39.431232, -75.430325"
  },
  {
    "name": "OLD POSSUM PARK RD/ MIDDLE RUN",
    "route": 303,
    "milepost": 0.08,
    "town": "Delavan city",
    "county": "New Castle County",
    "intersection": "MIDDLE RUN",
    "structure": "1229 303",
    "latlong": "39.41461, -75.431077"
  },
  {
    "name": "CAPITAL TRAIL/SR2/ MUDDY RUN",
    "route": 2,
    "milepost": 5.15,
    "town": "Lena village",
    "county": "New Castle County",
    "intersection": "MUDDY RUN",
    "structure": "1229A011",
    "latlong": "39.413956, -75.431317"
  },
  {
    "name": "CAPITOL TRAIL/SR2/ WHITE CLAY CREEK",
    "route": 2,
    "milepost": 4.86,
    "town": "Yauco Municipio",
    "county": "New Castle County",
    "intersection": "WHITE CLAY CREEK",
    "structure": "1229B011",
    "latlong": "39.413282, -75.432713"
  },
  {
    "name": "RED MILL RD/ AMTRAK",
    "route": 352,
    "milepost": 0.59,
    "town": "Gratiot village",
    "county": "New Castle County",
    "intersection": "AMTRAK",
    "structure": "1230 352",
    "latlong": "39.41089, -75.420761"
  },
  {
    "name": "PAPER MILL RD/ WHITE CLAY CREEK",
    "route": 13,
    "milepost": 0.42,
    "town": "Medford city",
    "county": "New Castle County",
    "intersection": "WHITE CLAY CREEK",
    "structure": "1231 013",
    "latlong": "39.412192, -75.445538"
  },
  {
    "name": "OLD CAPITOL TRAIL/ CALF RUN",
    "route": 12,
    "milepost": 0.16,
    "town": "Kewaunee city",
    "county": "New Castle County",
    "intersection": "CALF RUN",
    "structure": "1233 012",
    "latlong": "39.433412, -75.390664"
  },
  {
    "name": "KIRKWOOD HWY/SR2/ MILL CREEK",
    "route": 2,
    "milepost": 8.63,
    "town": "Lake Nebagamon village",
    "county": "New Castle County",
    "intersection": "MILL CREEK",
    "structure": "1234 011",
    "latlong": "39.431127, -75.395693"
  },
  {
    "name": "OLD CAPITOL TRAIL/ MILL CREEK",
    "route": 20,
    "milepost": 0.9,
    "town": "New Glarus village",
    "county": "New Castle County",
    "intersection": "MILL CREEK",
    "structure": "1235 020",
    "latlong": "39.42512, -75.395702"
  },
  {
    "name": "RED MILL RD/ WHITE CLAY CREEK",
    "route": 352,
    "milepost": 1.02,
    "town": "Montreal city",
    "county": "New Castle County",
    "intersection": "WHITE CLAY CREEK",
    "structure": "1236 352",
    "latlong": "39.412729, -75.422444"
  },
  {
    "name": "MITCH RD. / SR4/ CALF RUN",
    "route": 4,
    "milepost": 1.54,
    "town": "Yauco Municipio",
    "county": "New Castle County",
    "intersection": "CALF RUN",
    "structure": null,
    "latlong": "39.424869, -75.383866"
  },
  {
    "name": "MAIN STREET/SR4/ CALF RUN",
    "route": 4,
    "milepost": 1.6,
    "town": "Yauco Municipio",
    "county": "New Castle County",
    "intersection": "CALF RUN",
    "structure": "1241W336",
    "latlong": "39.425103, -75.383997"
  },
  {
    "name": "RED MILL RD/ STREAM MILL POND",
    "route": 352,
    "milepost": 1.09,
    "town": "Montreal city",
    "county": "New Castle County",
    "intersection": "STREAM MILL POND",
    "structure": "1242 352",
    "latlong": "39.412949, -75.422931"
  },
  {
    "name": "HARMONY RD/ AMTRAK",
    "route": 355,
    "milepost": 1.14,
    "town": "Harrison village",
    "county": "New Castle County",
    "intersection": "AMTRAK",
    "structure": "1245 355",
    "latlong": "39.412475, -75.411333"
  },
  {
    "name": "CHAPMAN RD./ WATERWAY",
    "route": 347,
    "milepost": 0.3,
    "town": "Crooks city",
    "county": "New Castle County",
    "intersection": "WATERWAY",
    "structure": "1246 347",
    "latlong": "39.395874, -75.41264"
  },
  {
    "name": "BRENNEN DR/ TRIB. TO WHITE CLAY CREE",
    "route": null,
    "milepost": 0,
    "town": "Yauco Municipio",
    "county": "New Castle County",
    "intersection": "TRIB. TO WHITE CLAY CREE",
    "structure": "1247 000",
    "latlong": "39.404335, -75.430048"
  },
  {
    "name": "HARMONY RD/ WHITE CLAY CREEK",
    "route": 355,
    "milepost": 1.87,
    "town": "Menomonie city",
    "county": "New Castle County",
    "intersection": "WHITE CLAY CREEK",
    "structure": "1251 355",
    "latlong": "39.415153, -75.414627"
  },
  {
    "name": "OLD BALTIMORE PK/ TRIB OF CHRISTINA CRK",
    "route": 26,
    "milepost": 3.88,
    "town": "Jackson village",
    "county": "New Castle County",
    "intersection": "TRIB OF CHRISTINA CRK",
    "structure": "1253 026",
    "latlong": "39.384162, -75.431224"
  },
  {
    "name": "OLD NEWARK RD/ COOL RUN",
    "route": 350,
    "milepost": 0.64,
    "town": "Yauco Municipio",
    "county": "New Castle County",
    "intersection": "COOL RUN",
    "structure": "1254 350",
    "latlong": "39.402824, -75.431264"
  },
  {
    "name": "OLD OGLETOWN RD./ TRIBUTARY WHITE CLAY CRK",
    "route": "0018C",
    "milepost": 0.32,
    "town": "Cottonwood town",
    "county": "New Castle County",
    "intersection": "TRIBUTARY WHITE CLAY CRK",
    "structure": "1255 018C",
    "latlong": "39.405835, -75.423546"
  },
  {
    "name": "CHURCHMANS RD/ CHRISTINA CREEK",
    "route": 58,
    "milepost": 1.83,
    "town": "East Troy village",
    "county": "New Castle County",
    "intersection": "CHRISTINA CREEK",
    "structure": "1256 339",
    "latlong": "39.41055, -75.375772"
  },
  {
    "name": "MAIN ST/CHRISTIANA/ CHRISTINA RIVER",
    "route": 7,
    "milepost": 0.61,
    "town": "Crooks city",
    "county": "New Castle County",
    "intersection": "CHRISTINA RIVER",
    "structure": "1257 018A",
    "latlong": "39.395032, -75.392402"
  },
  {
    "name": "WALTHER ROAD/ CHRISTINA CREEK",
    "route": 346,
    "milepost": 0.88,
    "town": "Glen Flora village",
    "county": "New Castle County",
    "intersection": "CHRISTINA CREEK",
    "structure": "1260 346",
    "latlong": "39.381539, -75.405057"
  },
  {
    "name": "SALEM CHURCH RD/ CHRISTINA CREEK",
    "route": 48,
    "milepost": 3.39,
    "town": "Jackson village",
    "county": "New Castle County",
    "intersection": "CHRISTINA CREEK",
    "structure": "1261 048",
    "latlong": "39.380799, -75.421986"
  },
  {
    "name": "SR7 & SR4/ WHITE CLAY CREEK",
    "route": 4,
    "milepost": 0.71,
    "town": "Yauco Municipio",
    "county": "New Castle County",
    "intersection": "WHITE CLAY CREEK",
    "structure": "1262N336",
    "latlong": "39.42253, -75.391217"
  },
  {
    "name": "SR 7 / SR 4/ WHITE CLAY CREEK",
    "route": 4,
    "milepost": 12.41,
    "town": "Yauco Municipio",
    "county": "New Castle County",
    "intersection": "WHITE CLAY CREEK",
    "structure": "1262S336",
    "latlong": "39.422552, -75.391279"
  },
  {
    "name": "SR7 & SR4/ AMTRAK",
    "route": 4,
    "milepost": 1.41,
    "town": "Glenwood City city",
    "county": "New Castle County",
    "intersection": "AMTRAK",
    "structure": "1264N336",
    "latlong": "39.421003, -75.391105"
  },
  {
    "name": "SR 7 / SR 4/ AMTRAK",
    "route": 4,
    "milepost": 12.76,
    "town": "Glenwood City city",
    "county": "New Castle County",
    "intersection": "AMTRAK",
    "structure": "1264S336",
    "latlong": "39.420973, -75.391168"
  },
  {
    "name": "SR 7 / N. OLD BALT/ TRIB. TO CHRISTINA RIVER",
    "route": 26,
    "milepost": 7.87,
    "town": "Crooks city",
    "county": "New Castle County",
    "intersection": "TRIB. TO CHRISTINA RIVER",
    "structure": "1266 026",
    "latlong": "39.40196, -75.393018"
  },
  {
    "name": "EAGLE RUN RD/ TRIB TO CHRISTINA RIVER",
    "route": 347,
    "milepost": 0,
    "town": "Edgerton city",
    "county": "New Castle County",
    "intersection": "TRIB TO CHRISTINA RIVER",
    "structure": "1266A347",
    "latlong": "39.40363, -75.39458"
  },
  {
    "name": "EAGLE RUN RD/ TRIB TO CHRISTINA RIVER",
    "route": 347,
    "milepost": 0,
    "town": "Edgerton city",
    "county": "New Castle County",
    "intersection": "TRIB TO CHRISTINA RIVER",
    "structure": "1266B347",
    "latlong": "3.9435, -75.39351"
  },
  {
    "name": "OLD BALTIMORE PIKE/ TRIB. TO SMALLEYS DAM",
    "route": 26,
    "milepost": 6.42,
    "town": "Crooks city",
    "county": "New Castle County",
    "intersection": "TRIB. TO SMALLEYS DAM",
    "structure": "1267 026",
    "latlong": "39.392488, -75.402964"
  },
  {
    "name": "STANTON CHRISTIANA/ CHURCHMANS RD",
    "route": 7,
    "milepost": 5.94,
    "town": "Edgerton city",
    "county": "New Castle County",
    "intersection": "CHURCHMANS RD",
    "structure": "1267N067",
    "latlong": "39.411875, -75.391644"
  },
  {
    "name": "STANTON CHRISTIANA/ CHURCHMANS RD/SR58",
    "route": 1,
    "milepost": 7.07,
    "town": "Edgerton city",
    "county": "New Castle County",
    "intersection": "CHURCHMANS RD/SR58",
    "structure": "1267S067",
    "latlong": "39.411884, -75.391719"
  },
  {
    "name": "SR1NB-I95NB RAMP/ SR7",
    "route": 6052,
    "milepost": 5.28,
    "town": "Edgerton city",
    "county": "New Castle County",
    "intersection": "SR7",
    "structure": "1268A6052",
    "latlong": "39.40505, -75.39242"
  },
  {
    "name": "SR1NB-I95NB RAMP/ I95 NB",
    "route": 6052,
    "milepost": 0,
    "town": "Edgerton city",
    "county": "New Castle County",
    "intersection": "I95 NB",
    "structure": "1268B6052",
    "latlong": "39.410535, -75.39109"
  },
  {
    "name": "WEDGEWOOD RD/ E. BRANCH CHRISTINA CRK",
    "route": 312,
    "milepost": 0.93,
    "town": "Cumberland city",
    "county": "New Castle County",
    "intersection": "E. BRANCH CHRISTINA CRK",
    "structure": "1274 312",
    "latlong": "39.422347, -75.470655"
  },
  {
    "name": "WEDGEWOOD RD/ CHRISTINA CREEK",
    "route": 312,
    "milepost": 0.49,
    "town": "Cumberland city",
    "county": "New Castle County",
    "intersection": "CHRISTINA CREEK",
    "structure": "1275 312",
    "latlong": "39.420206, -75.471418"
  },
  {
    "name": "NOTINGHAM RD/SR273/ CHRISTINA CREEK",
    "route": 273,
    "milepost": 0.64,
    "town": "Medford city",
    "county": "New Castle County",
    "intersection": "CHRISTINA CREEK",
    "structure": "1276 041",
    "latlong": "39.412652, -75.463656"
  },
  {
    "name": "CHURCH RD./ CHRISTINA CREEK",
    "route": 363,
    "milepost": 0.1,
    "town": "Medford city",
    "county": "New Castle County",
    "intersection": "CHRISTINA CREEK",
    "structure": "1277 363",
    "latlong": "39.412061, -75.463752"
  },
  {
    "name": "VALLEY RD/ TRIB TO CHRISTINA RIVER",
    "route": 362,
    "milepost": 0.64,
    "town": "Medford city",
    "county": "New Castle County",
    "intersection": "TRIB TO CHRISTINA RIVER",
    "structure": "1279 362",
    "latlong": "39.41184, -75.47039"
  },
  {
    "name": "CHRISTIANA BYPASS/ CHRISTINA RIVER",
    "route": 273,
    "milepost": 0.79,
    "town": "Crooks city",
    "county": "New Castle County",
    "intersection": "CHRISTINA RIVER",
    "structure": 1280000,
    "latlong": "39.393306, -75.39441"
  },
  {
    "name": "CHRISTIANA BYPASS/ CHRISTINA RIVER",
    "route": 273,
    "milepost": 7.08,
    "town": "Crooks city",
    "county": "New Castle County",
    "intersection": "CHRISTINA RIVER",
    "structure": "1279W003",
    "latlong": "39.393349, -75.394366"
  },
  {
    "name": "BARKSDALE RD/ CHRISTINA CREEK",
    "route": 360,
    "milepost": 0.39,
    "town": "Yauco Municipio",
    "county": "New Castle County",
    "intersection": "CHRISTINA CREEK",
    "structure": "1280 360",
    "latlong": "39.403919, -75.465167"
  },
  {
    "name": "CHRISTINA PARKWAY/ CHRISTINA CREEK",
    "route": 4,
    "milepost": 0.38,
    "town": "Bison town",
    "county": "New Castle County",
    "intersection": "CHRISTINA CREEK",
    "structure": "1281 366",
    "latlong": "39.395072, -75.462626"
  },
  {
    "name": "CHRISTINA PARKWAY/ AMTRAK & CONRAIL",
    "route": 4,
    "milepost": 0.5,
    "town": "Medford city",
    "county": "New Castle County",
    "intersection": "AMTRAK & CONRAIL",
    "structure": "1282 366",
    "latlong": "39.394639, -75.461991"
  },
  {
    "name": "SR 273 RAMP  6505/ SR 4",
    "route": 273,
    "milepost": 0.06,
    "town": "Montreal city",
    "county": "New Castle County",
    "intersection": "SR 4",
    "structure": "1286A6505",
    "latlong": "39.404508, -75.414263"
  },
  {
    "name": "SR273/ SR4",
    "route": 273,
    "milepost": 2.5,
    "town": "Montreal city",
    "county": "New Castle County",
    "intersection": "SR4",
    "structure": 1290000,
    "latlong": "39.404331, -75.414593"
  },
  {
    "name": "SR 273/ SR 4",
    "route": 273,
    "milepost": 2.5,
    "town": "Montreal city",
    "county": "New Castle County",
    "intersection": "SR 4",
    "structure": "1286W018",
    "latlong": "39.404378, -75.414506"
  },
  {
    "name": "NEWARK-CHRISTIANA/ AMTRAK",
    "route": 273,
    "milepost": 1.89,
    "town": "Cottonwood town",
    "county": "New Castle County",
    "intersection": "AMTRAK",
    "structure": 12900000,
    "latlong": "39.410747, -75.421213"
  },
  {
    "name": "SR273 / OGLETOWN R/ AMTRAK",
    "route": 273,
    "milepost": 6.35,
    "town": "Cottonwood town",
    "county": "New Castle County",
    "intersection": "AMTRAK",
    "structure": "1287W018",
    "latlong": "39.410775, -75.421117"
  },
  {
    "name": "WILMINGTON RD/ NARROW DYKE CANAL",
    "route": 19,
    "milepost": 0.14,
    "town": "Melvina village",
    "county": "New Castle County",
    "intersection": "NARROW DYKE CANAL",
    "structure": "1289 019",
    "latlong": "39.395408, -75.333829"
  },
  {
    "name": "FERRY CUT OFF RD/ NARROW DYKE CANAL",
    "route": 9,
    "milepost": 9.63,
    "town": "Melvina village",
    "county": "New Castle County",
    "intersection": "NARROW DYKE CANAL",
    "structure": "1290 378",
    "latlong": "39.395632, -75.334431"
  },
  {
    "name": "SONGSMITH DRIVE/ TRIB. TO SMALLEYS POND",
    "route": null,
    "milepost": 0,
    "town": "Batesland town",
    "county": "New Castle County",
    "intersection": "TRIB. TO SMALLEYS POND",
    "structure": "1291 000",
    "latlong": "39.382231, -75.395454"
  },
  {
    "name": "AIRPORT RD/ NONESUCH CREEK",
    "route": 340,
    "milepost": 2.49,
    "town": "Crooks city",
    "county": "New Castle County",
    "intersection": "NONESUCH CREEK",
    "structure": "1292 340",
    "latlong": "39.41352, -75.365921"
  },
  {
    "name": "BEAR CORBITT RD/ RED LION CREEK",
    "route": 7,
    "milepost": 1.83,
    "town": "Yauco Municipio",
    "county": "New Castle County",
    "intersection": "RED LION CREEK",
    "structure": "1298 005",
    "latlong": "39.361954, -75.395346"
  },
  {
    "name": "SR71 / RED LION RD/ RED LION CREEK",
    "route": 71,
    "milepost": 6.35,
    "town": "Yauco Municipio",
    "county": "New Castle County",
    "intersection": "RED LION CREEK",
    "structure": "1299 035",
    "latlong": "39.361604, -75.400497"
  },
  {
    "name": "SR72/WRANGLE HILL/ SR 1",
    "route": 72,
    "milepost": 0.21,
    "town": "Monticello village",
    "county": "New Castle County",
    "intersection": "SR 1",
    "structure": "1301 356",
    "latlong": "39.34489, -75.394272"
  },
  {
    "name": "SR 9 / RIVER RD/ ARMY CREEK",
    "route": 9,
    "milepost": 7.92,
    "town": "Melvina village",
    "county": "New Castle County",
    "intersection": "ARMY CREEK",
    "structure": "1303 378",
    "latlong": "39.390664, -75.3518"
  },
  {
    "name": "RIVER RD / SR9/ RED LION CREEK",
    "route": 9,
    "milepost": 3.84,
    "town": "Yauco Municipio",
    "county": "New Castle County",
    "intersection": "RED LION CREEK",
    "structure": "1305 378",
    "latlong": "39.361928, -75.374839"
  },
  {
    "name": "KOREAN WAR VET MEM/ RED LION CREEK",
    "route": 13,
    "milepost": 5.17,
    "town": "Yauco Municipio",
    "county": "New Castle County",
    "intersection": "RED LION CREEK",
    "structure": "1305N082",
    "latlong": "39.362121, -75.391049"
  },
  {
    "name": "KOREAN WAR VET MEM/ RED LION CREEK",
    "route": 13,
    "milepost": 12.78,
    "town": "Yauco Municipio",
    "county": "New Castle County",
    "intersection": "RED LION CREEK",
    "structure": "1305S082",
    "latlong": "39.362126, -75.391109"
  },
  {
    "name": "KIRKWOOD/ST GEORGE/ SR1",
    "route": 409,
    "milepost": 0.64,
    "town": "Yauco Municipio",
    "county": "New Castle County",
    "intersection": "SR1",
    "structure": "1306 409",
    "latlong": "39.333535, -75.39489"
  },
  {
    "name": "SR 9 / RIVER ROAD/ VALERO OIL PIPE LINES",
    "route": 9,
    "milepost": 2.56,
    "town": "Yauco Municipio",
    "county": "New Castle County",
    "intersection": "VALERO OIL PIPE LINES",
    "structure": "1307 378",
    "latlong": "39.351357, -75.37474"
  },
  {
    "name": "CLARKS CORNER RD./ DRAGON CREEK",
    "route": 378,
    "milepost": 1.29,
    "town": "Denmark village",
    "county": "New Castle County",
    "intersection": "DRAGON CREEK",
    "structure": "1308 378",
    "latlong": "39.34124, -75.381169"
  },
  {
    "name": "SR 1/ US 13",
    "route": 1,
    "milepost": 0.82,
    "town": "Melvina village",
    "county": "New Castle County",
    "intersection": "US 13",
    "structure": "1310 067",
    "latlong": "39.370571, -75.383683"
  },
  {
    "name": "SR 1/ SR 71",
    "route": 1,
    "milepost": 12.26,
    "town": "Melvina village",
    "county": "New Castle County",
    "intersection": "SR 71",
    "structure": "1313 067",
    "latlong": "39.370272, -75.384474"
  },
  {
    "name": "KOREAN WAR VET MEM/ NORFOLK SOUTHERN/ RD 381",
    "route": 1,
    "milepost": 1.89,
    "town": "Batesland town",
    "county": "New Castle County",
    "intersection": "NORFOLK SOUTHERN/ RD 381",
    "structure": "1315N067",
    "latlong": "39.37555, -75.391021"
  },
  {
    "name": "KOREAN WAR VET MEM/ NORFOLK SOUTHERN/ RD 381",
    "route": 1,
    "milepost": 1.89,
    "town": "Batesland town",
    "county": "New Castle County",
    "intersection": "NORFOLK SOUTHERN/ RD 381",
    "structure": "1315S067",
    "latlong": "39.375499, -75.391115"
  },
  {
    "name": "SR 1/ US 40",
    "route": 1,
    "milepost": 2.22,
    "town": "Melvina village",
    "county": "New Castle County",
    "intersection": "US 40",
    "structure": "1317N067",
    "latlong": "39.381281, -75.391127"
  },
  {
    "name": "SR 1/ US 40",
    "route": 1,
    "milepost": 2.22,
    "town": "Melvina village",
    "county": "New Castle County",
    "intersection": "US 40",
    "structure": "1317S067",
    "latlong": "39.381221, -75.391234"
  },
  {
    "name": "LOWER TWIN LANE RD/ SR 1",
    "route": 406,
    "milepost": 1.53,
    "town": "Yauco Municipio",
    "county": "New Castle County",
    "intersection": "SR 1",
    "structure": "1318 406",
    "latlong": "39.355192, -75.392639"
  },
  {
    "name": "MCCOY RD/ DRAGON CREEK",
    "route": 407,
    "milepost": 1.24,
    "town": "Kiel city",
    "county": "New Castle County",
    "intersection": "DRAGON CREEK",
    "structure": "1319 407",
    "latlong": "39.335539, -75.401476"
  },
  {
    "name": "SR 1/ SCHOOL BELL RD",
    "route": 1,
    "milepost": 3.53,
    "town": "Melvina village",
    "county": "New Castle County",
    "intersection": "SCHOOL BELL RD",
    "structure": "1319N067",
    "latlong": "39.391926, -75.390335"
  },
  {
    "name": "SR 1/ SCHOOL BELL RD",
    "route": 1,
    "milepost": 3.53,
    "town": "Melvina village",
    "county": "New Castle County",
    "intersection": "SCHOOL BELL RD",
    "structure": "1319S067",
    "latlong": "39.391965, -75.390446"
  },
  {
    "name": "OTTS CHAPEL RD./ AMTRAK",
    "route": 397,
    "milepost": 2.07,
    "town": "Altamont town",
    "county": "New Castle County",
    "intersection": "AMTRAK",
    "structure": "1320 397",
    "latlong": "39.391705, -75.465424"
  },
  {
    "name": "CORNWELL DR./ WATERWAY",
    "route": null,
    "milepost": 0.04,
    "town": "Kiel city",
    "county": "New Castle County",
    "intersection": "WATERWAY",
    "structure": "1321B000",
    "latlong": "39.341874, -75.413454"
  },
  {
    "name": "ELKTON RD/SR2/ CHRISTINA CREEK",
    "route": 2,
    "milepost": 1.39,
    "town": "Medford city",
    "county": "New Castle County",
    "intersection": "CHRISTINA CREEK",
    "structure": "1322 011",
    "latlong": "39.400975, -75.461802"
  },
  {
    "name": "ELKTON RD/SR2/ WEST BRANCH",
    "route": 2,
    "milepost": 0.21,
    "town": "Medford city",
    "county": "New Castle County",
    "intersection": "WEST BRANCH",
    "structure": "1323 011",
    "latlong": "39.392325, -75.470981"
  },
  {
    "name": "OTTS CHAPEL RD/ WEST BRANCH",
    "route": 397,
    "milepost": 2.16,
    "town": "Medford city",
    "county": "New Castle County",
    "intersection": "WEST BRANCH",
    "structure": "1324 397",
    "latlong": "39.392063, -75.465728"
  },
  {
    "name": "OTTS CHAPEL RD/ PERSIMMON RUN",
    "route": 397,
    "milepost": 1.89,
    "town": "Medford city",
    "county": "New Castle County",
    "intersection": "PERSIMMON RUN",
    "structure": "1325 397",
    "latlong": "39.390458, -75.464886"
  },
  {
    "name": "W.CHESTNUT HILL RD/ CHRISTINA CREEK",
    "route": 364,
    "milepost": 2,
    "town": "Medford city",
    "county": "New Castle County",
    "intersection": "CHRISTINA CREEK",
    "structure": "1326 364",
    "latlong": "39.39129, -75.45159"
  },
  {
    "name": "CHESTNUT HILL RD./ TRIB OF CHRISTINA CRK",
    "route": 364,
    "milepost": 2.07,
    "town": "Medford city",
    "county": "New Castle County",
    "intersection": "TRIB OF CHRISTINA CRK",
    "structure": "1327 364",
    "latlong": "39.391535, -75.451212"
  },
  {
    "name": "KOREAN WAR MEM HGY/ SR273/HARES CORNER RD",
    "route": 1,
    "milepost": 3.95,
    "town": "Crooks city",
    "county": "New Castle County",
    "intersection": "SR273/HARES CORNER RD",
    "structure": "1328N067",
    "latlong": "39.39405, -75.390911"
  },
  {
    "name": "KOREAN WAR MEM HGY/ SR 273/HARES CORNER RD",
    "route": 1,
    "milepost": 7.23,
    "town": "Crooks city",
    "county": "New Castle County",
    "intersection": "SR 273/HARES CORNER RD",
    "structure": "1328S067",
    "latlong": "39.394014, -75.390991"
  },
  {
    "name": "SR1 NORTHBOUND/ CHRISTINA RIVER",
    "route": 1,
    "milepost": 4.25,
    "town": "Crooks city",
    "county": "New Castle County",
    "intersection": "CHRISTINA RIVER",
    "structure": "1329N067",
    "latlong": "39.395621, -75.391653"
  },
  {
    "name": "KOREAN WAR MEM HGY/ CHRISTINA RIVER",
    "route": 1,
    "milepost": 8.76,
    "town": "Crooks city",
    "county": "New Castle County",
    "intersection": "CHRISTINA RIVER",
    "structure": "1329S067",
    "latlong": "39.395607, -75.391761"
  },
  {
    "name": "RAMP 6332 TO SR1/ EAGLE RUN",
    "route": 6332,
    "milepost": 0.03,
    "town": "Crooks city",
    "county": "New Castle County",
    "intersection": "EAGLE RUN",
    "structure": "1331A6332",
    "latlong": "39.401381, -75.391532"
  },
  {
    "name": "RAMP 6338 TO SR1/ EAGLE RUN",
    "route": 1,
    "milepost": 0.13,
    "town": "Crooks city",
    "county": "New Castle County",
    "intersection": "EAGLE RUN",
    "structure": "1331B6338",
    "latlong": "39.401507, -75.391815"
  },
  {
    "name": "SR1/ EAGLE RUN",
    "route": 1,
    "milepost": 4.61,
    "town": "Edgerton city",
    "county": "New Castle County",
    "intersection": "EAGLE RUN",
    "structure": "1331N067",
    "latlong": "39.401439, -75.391643"
  },
  {
    "name": "SR1/ EAGLE RUN",
    "route": 1,
    "milepost": 4.54,
    "town": "Edgerton city",
    "county": "New Castle County",
    "intersection": "EAGLE RUN",
    "structure": "1331S067",
    "latlong": "39.401485, -75.39172"
  },
  {
    "name": "OLD BALTIMORE PIKE/ CHRISTINA CREEK",
    "route": 26,
    "milepost": 2.96,
    "town": "Jackson village",
    "county": "New Castle County",
    "intersection": "CHRISTINA CREEK",
    "structure": "1336 026",
    "latlong": "39.38241, -75.441045"
  },
  {
    "name": "SR 896 S TO I 95 S/ CHRISTINA CREEK",
    "route": 95,
    "milepost": 0.08,
    "town": "Medford city",
    "county": "New Castle County",
    "intersection": "CHRISTINA CREEK",
    "structure": "1341 6014",
    "latlong": "39.385656, -75.445374"
  },
  {
    "name": "WELSH TRACT RD./ CHRISTINA CREEK",
    "route": 367,
    "milepost": 1.83,
    "town": "Medford city",
    "county": "New Castle County",
    "intersection": "CHRISTINA CREEK",
    "structure": "1345 367",
    "latlong": "39.390366, -75.450277"
  },
  {
    "name": "GLASGOW AVE./ MUDDY RUN",
    "route": "0387A",
    "milepost": 1.68,
    "town": "Glenbeulah village",
    "county": "New Castle County",
    "intersection": "MUDDY RUN",
    "structure": "1351 387A",
    "latlong": "39.363708, -75.444637"
  },
  {
    "name": "SR896/ MUDDY RUN",
    "route": 896,
    "milepost": 3.79,
    "town": "Glenbeulah village",
    "county": "New Castle County",
    "intersection": "MUDDY RUN",
    "structure": "1354N387",
    "latlong": "39.363716, -75.444207"
  },
  {
    "name": "SR896/ MUDDY RUN",
    "route": 896,
    "milepost": 3.96,
    "town": "Glenbeulah village",
    "county": "New Castle County",
    "intersection": "MUDDY RUN",
    "structure": "1354S387",
    "latlong": "39.36371, -75.444299"
  },
  {
    "name": "SUNSET LAKE RD/ CHRISTINA CREEK",
    "route": 72,
    "milepost": 5.92,
    "town": "Jackson village",
    "county": "New Castle County",
    "intersection": "CHRISTINA CREEK",
    "structure": "1355 356",
    "latlong": "39.381494, -75.434303"
  },
  {
    "name": "SALEM CHURCH RD/ MUDDY RUN",
    "route": 48,
    "milepost": 3.1,
    "town": "Jackson village",
    "county": "New Castle County",
    "intersection": "MUDDY RUN",
    "structure": "1356 048",
    "latlong": "39.375279, -75.422061"
  },
  {
    "name": "SALEM CHURCH RD/ BECKS POND/BELLTOWN RUN",
    "route": 48,
    "milepost": 2.65,
    "town": "Jackson village",
    "county": "New Castle County",
    "intersection": "BECKS POND/BELLTOWN RUN",
    "structure": "1357 048",
    "latlong": "39.373098, -75.421098"
  },
  {
    "name": "SUNSET LAKE RD/ MUDDY RUN",
    "route": 72,
    "milepost": 5.21,
    "town": "Glenbeulah village",
    "county": "New Castle County",
    "intersection": "MUDDY RUN",
    "structure": "1361 356",
    "latlong": "39.373396, -75.432733"
  },
  {
    "name": "CHESPEAKE CITY RD./ GUTHRIE RUN",
    "route": 399,
    "milepost": 1.11,
    "town": "Yauco Municipio",
    "county": "New Castle County",
    "intersection": "GUTHRIE RUN",
    "structure": "1366 399",
    "latlong": "39.324245, -75.45348"
  },
  {
    "name": "CARAVEL DR/ BELLTOWN RUN",
    "route": null,
    "milepost": 0,
    "town": "Chelsea town",
    "county": "New Castle County",
    "intersection": "BELLTOWN RUN",
    "structure": "1367 000",
    "latlong": "39.35476, -75.43256"
  },
  {
    "name": "CHOPTANK RD./ BACK CREEK",
    "route": 15,
    "milepost": 3.92,
    "town": "Yauco Municipio",
    "county": "New Castle County",
    "intersection": "BACK CREEK",
    "structure": "1377 435",
    "latlong": "39.303612, -75.450846"
  },
  {
    "name": "SR 9/ ST. GEORGES CREEK",
    "route": 9,
    "milepost": 5.55,
    "town": "Norwalk village",
    "county": "New Castle County",
    "intersection": "ST. GEORGES CREEK",
    "structure": "1386 002",
    "latlong": "39.322538, -75.344565"
  },
  {
    "name": "SR 9/ SILVER RUN",
    "route": 9,
    "milepost": 3.74,
    "town": "Avon city",
    "county": "New Castle County",
    "intersection": "SILVER RUN",
    "structure": "1390 424",
    "latlong": "39.283501, -75.361049"
  },
  {
    "name": "SR 9/ APPOQUINIMINK RIVER",
    "route": 9,
    "milepost": 2.69,
    "town": "Avon city",
    "county": "New Castle County",
    "intersection": "APPOQUINIMINK RIVER",
    "structure": "1391 424",
    "latlong": "39.275673, -75.364865"
  },
  {
    "name": "SR 9/ APPOQUINIMINK RIVER",
    "route": 9,
    "milepost": 2.46,
    "town": "Avon city",
    "county": "New Castle County",
    "intersection": "APPOQUINIMINK RIVER",
    "structure": "1392 424",
    "latlong": "39.274901, -75.370104"
  },
  {
    "name": "SR 299/MAIN STREET/ APPOQUINIMINK RIVER",
    "route": 299,
    "milepost": 2.55,
    "town": "Monticello village",
    "county": "New Castle County",
    "intersection": "APPOQUINIMINK RIVER",
    "structure": "1393 441",
    "latlong": "39.270943, -75.391769"
  },
  {
    "name": "US 13 NB/DUPONT PA/ APPOQUINIMINK RIVER",
    "route": 13,
    "milepost": 10.32,
    "town": "Monticello village",
    "county": "New Castle County",
    "intersection": "APPOQUINIMINK RIVER",
    "structure": "1393N001",
    "latlong": "39.263896, -75.394806"
  },
  {
    "name": "US 13 SB/ APPOQUINIMINK RIVER",
    "route": 13,
    "milepost": 10.32,
    "town": "Monticello village",
    "county": "New Castle County",
    "intersection": "APPOQUINIMINK RIVER",
    "structure": "1393S001",
    "latlong": "39.263878, -75.394896"
  },
  {
    "name": "US13NB/DUPONT PKY/ DRAWYERS CREEK",
    "route": 13,
    "milepost": 1.24,
    "town": "Monticello village",
    "county": "New Castle County",
    "intersection": "DRAWYERS CREEK",
    "structure": "1394N022",
    "latlong": "39.282116, -75.390345"
  },
  {
    "name": "US13SB/DUPONT PKY/ DRAWYERS CREEK",
    "route": 13,
    "milepost": 12.48,
    "town": "Monticello village",
    "county": "New Castle County",
    "intersection": "DRAWYERS CREEK",
    "structure": "1394S022",
    "latlong": "39.282116, -75.390465"
  },
  {
    "name": "MARL PIT RD/ DOVE NEST BRANCH",
    "route": 429,
    "milepost": 0.89,
    "town": "Monticello village",
    "county": "New Castle County",
    "intersection": "DOVE NEST BRANCH",
    "structure": "1405 429",
    "latlong": "39.274821, -75.401239"
  },
  {
    "name": "BRICK MILL RD/ DOVE NEST BRANCH",
    "route": 430,
    "milepost": 0.68,
    "town": "McFarland village",
    "county": "New Castle County",
    "intersection": "DOVE NEST BRANCH",
    "structure": "1406 430",
    "latlong": "39.274478, -75.411576"
  },
  {
    "name": "SILVER LAKE RD./ SILVER LAKE SPILLWY",
    "route": 442,
    "milepost": 0.2,
    "town": "McFarland village",
    "county": "New Castle County",
    "intersection": "SILVER LAKE SPILLWY",
    "structure": "1407 442",
    "latlong": "39.261641, -75.413625"
  },
  {
    "name": "FAIRVIEW AVE./ WATERWAY",
    "route": null,
    "milepost": 0,
    "town": "Yauco Municipio",
    "county": "New Castle County",
    "intersection": "WATERWAY",
    "structure": "1410 000",
    "latlong": "39.313272, -75.454611"
  },
  {
    "name": "CHURCHTOWN RD./ BACK CREEK",
    "route": 432,
    "milepost": 1.92,
    "town": "Marshall village",
    "county": "New Castle County",
    "intersection": "BACK CREEK",
    "structure": "1413 432",
    "latlong": "39.30217, -75.444653"
  },
  {
    "name": "MARYLAND LINE RD./ TRIB OF SASSAFRAS RIVER",
    "route": 461,
    "milepost": 1.19,
    "town": "Yauco Municipio",
    "county": "New Castle County",
    "intersection": "TRIB OF SASSAFRAS RIVER",
    "structure": "1420 461",
    "latlong": "39.223917, -75.455958"
  },
  {
    "name": "POLE BRIDGE RD./ SR1/KOREAN WAR VET MEM H",
    "route": 420,
    "milepost": 0.17,
    "town": "Greenwood city",
    "county": "New Castle County",
    "intersection": "SR1/KOREAN WAR VET MEM H",
    "structure": "1420A420",
    "latlong": "39.300173, -75.384437"
  },
  {
    "name": "BAYVIEW/ SR1/KOREAN WAR VET MEM H",
    "route": 423,
    "milepost": 0.17,
    "town": "Greenwood city",
    "county": "New Castle County",
    "intersection": "SR1/KOREAN WAR VET MEM H",
    "structure": "1423A423",
    "latlong": "39.293727, -75.384971"
  },
  {
    "name": "WIGGINS MILL RD./ CATTAIL BRANCH",
    "route": 446,
    "milepost": 0.85,
    "town": "Yauco Municipio",
    "county": "New Castle County",
    "intersection": "CATTAIL BRANCH",
    "structure": "1424 446",
    "latlong": "39.241238, -75.421522"
  },
  {
    "name": "GREARS CORNER RD./ BARLOW BRANCH",
    "route": 459,
    "milepost": 0.28,
    "town": "Yauco Municipio",
    "county": "New Castle County",
    "intersection": "BARLOW BRANCH",
    "structure": "1427 459",
    "latlong": "39.215808, -75.414222"
  },
  {
    "name": "US 301 NB/ SCOTT RUN",
    "route": 84,
    "milepost": 11.68,
    "town": "Yauco Municipio",
    "county": "New Castle County",
    "intersection": "SCOTT RUN",
    "structure": "1432 084",
    "latlong": "39.32085, -75.38572"
  },
  {
    "name": "US301 NB/ SR1",
    "route": 301,
    "milepost": 11.24,
    "town": "Yauco Municipio",
    "county": "New Castle County",
    "intersection": "SR1",
    "structure": "1433 084",
    "latlong": "39.3146, -75.39001"
  },
  {
    "name": "CLAYTON/DELANEY RD/ CYPRESS BRANCH",
    "route": 40,
    "milepost": 0.54,
    "town": "Delavan city",
    "county": "New Castle County",
    "intersection": "CYPRESS BRANCH",
    "structure": "1434 040",
    "latlong": "39.180217, -75.450073"
  },
  {
    "name": "US301/ TRIB TO SCOTT RUN",
    "route": 84,
    "milepost": 10.7,
    "town": "Yauco Municipio",
    "county": "New Castle County",
    "intersection": "TRIB TO SCOTT RUN",
    "structure": "1436 084",
    "latlong": "39.31312, -75.39307"
  },
  {
    "name": "BLACKBIRD STA RD/ BLACKBIRD CREEK",
    "route": 463,
    "milepost": 0.21,
    "town": "Bonesteel city",
    "county": "New Castle County",
    "intersection": "BLACKBIRD CREEK",
    "structure": "1438 463",
    "latlong": "39.215819, -75.400986"
  },
  {
    "name": "SR299/ SR1",
    "route": 299,
    "milepost": 2.88,
    "town": "Monticello village",
    "county": "New Castle County",
    "intersection": "SR1",
    "structure": "1438A438",
    "latlong": "39.271824, -75.402911"
  },
  {
    "name": "SUMMIT BRIDGE RD/ CATTAIL BRANCH",
    "route": 14,
    "milepost": 2.66,
    "town": "Yauco Municipio",
    "county": "New Castle County",
    "intersection": "CATTAIL BRANCH",
    "structure": "1440 014",
    "latlong": "39.243015, -75.415659"
  },
  {
    "name": "NOXONTOWN RD./ NOXONTOWN POND/SPILLWAY",
    "route": 38,
    "milepost": 1.73,
    "town": "McFarland village",
    "county": "New Castle County",
    "intersection": "NOXONTOWN POND/SPILLWAY",
    "structure": "1443 038",
    "latlong": "39.260388, -75.405901"
  },
  {
    "name": "US301/ WATERWAY/WILDLIFE X-ING",
    "route": 84,
    "milepost": 8.16,
    "town": "Marshall village",
    "county": "New Castle County",
    "intersection": "WATERWAY/WILDLIFE X-ING",
    "structure": "1444 084",
    "latlong": "39.30341, -75.41317"
  },
  {
    "name": "SR 9/TAYLORS BR RD/ HANGMAN RUN",
    "route": 9,
    "milepost": 8.1,
    "town": "Francis Creek village",
    "county": "New Castle County",
    "intersection": "HANGMAN RUN",
    "structure": "1445 449",
    "latlong": "39.25391, -75.37546"
  },
  {
    "name": "SR 9/ BLACKBIRD CREEK",
    "route": 9,
    "milepost": 4.84,
    "town": "Columbia city",
    "county": "New Castle County",
    "intersection": "BLACKBIRD CREEK",
    "structure": "1447 449",
    "latlong": "39.241774, -75.355762"
  },
  {
    "name": "UNION CHURCH RD./ BEAVER BRANCH",
    "route": 456,
    "milepost": 2.42,
    "town": "Yauco Municipio",
    "county": "New Castle County",
    "intersection": "BEAVER BRANCH",
    "structure": "1448 456",
    "latlong": "39.240887, -75.374095"
  },
  {
    "name": "BLACKBIRD LANDING/ BLACKBIRD CREEK",
    "route": 455,
    "milepost": 1.27,
    "town": "Bonesteel city",
    "county": "New Castle County",
    "intersection": "BLACKBIRD CREEK",
    "structure": "1451 455",
    "latlong": "39.231939, -75.38094"
  },
  {
    "name": "SR9/FLEMINGS LAND/ SMYRNA RIVER",
    "route": 9,
    "milepost": 0,
    "town": "Frederic village",
    "county": "New Castle County",
    "intersection": "SMYRNA RIVER",
    "structure": "1452 449",
    "latlong": "39.211405, -75.325885"
  },
  {
    "name": "EAGLES NEST LDG RD/ SAW MILL BRANCH",
    "route": 465,
    "milepost": 1.78,
    "town": "Bonesteel city",
    "county": "New Castle County",
    "intersection": "SAW MILL BRANCH",
    "structure": "1454 465",
    "latlong": "39.21384, -75.37183"
  },
  {
    "name": "DEER RUN RD/ SAW MILL BRANCH",
    "route": 466,
    "milepost": 0.57,
    "town": "Bonesteel city",
    "county": "New Castle County",
    "intersection": "SAW MILL BRANCH",
    "structure": "1455 466",
    "latlong": "39.220276, -75.364666"
  },
  {
    "name": "WALKER SCHOOL RD/ SAW MILL BRANCH",
    "route": 45,
    "milepost": 2.23,
    "town": "Yauco Municipio",
    "county": "New Castle County",
    "intersection": "SAW MILL BRANCH",
    "structure": "1456 045",
    "latlong": "39.222521, -75.360412"
  },
  {
    "name": "PADDOCK RD./ SAW MILL BRANCH",
    "route": 30,
    "milepost": 4.08,
    "town": "Columbia city",
    "county": "New Castle County",
    "intersection": "SAW MILL BRANCH",
    "structure": "1457 030",
    "latlong": "39.215612, -75.343955"
  },
  {
    "name": "HYETTS CORNER RD/ SCOTT RUN",
    "route": 413,
    "milepost": 2.46,
    "town": "La Valle village",
    "county": "New Castle County",
    "intersection": "SCOTT RUN",
    "structure": "1458 413",
    "latlong": "39.31302, -75.39543"
  },
  {
    "name": "JAMISON CORNER RD/ US 301",
    "route": 413,
    "milepost": 1.54,
    "town": "Marshall village",
    "county": "New Castle County",
    "intersection": "US 301",
    "structure": "1460A413",
    "latlong": "39.3127, -75.40468"
  },
  {
    "name": "US301 NB/ SCOTT RUN",
    "route": 84,
    "milepost": 10.27,
    "town": "Yauco Municipio",
    "county": "New Castle County",
    "intersection": "SCOTT RUN",
    "structure": "1460N084",
    "latlong": "39.3128, -75.39585"
  },
  {
    "name": "US301 SB/ SCOTT RUN",
    "route": 84,
    "milepost": 13.24,
    "town": "Yauco Municipio",
    "county": "New Castle County",
    "intersection": "SCOTT RUN",
    "structure": "1460S084",
    "latlong": "39.31288, -75.39579"
  },
  {
    "name": "MCQUAIL RD/ CORKS POINT DITCH",
    "route": 468,
    "milepost": 1.08,
    "town": "Yauco Municipio",
    "county": "New Castle County",
    "intersection": "CORKS POINT DITCH",
    "structure": "1461 468",
    "latlong": "39.202685, -75.350299"
  },
  {
    "name": "PADDOCK RD./ SR 1",
    "route": 30,
    "milepost": 0.5,
    "town": "Yauco Municipio",
    "county": "New Castle County",
    "intersection": "SR 1",
    "structure": "1464 030",
    "latlong": "39.191995, -75.363476"
  },
  {
    "name": "GLEN MOHR DR./ BEAVER BRANCH",
    "route": null,
    "milepost": 0.2,
    "town": "New Lisbon city",
    "county": "New Castle County",
    "intersection": "BEAVER BRANCH",
    "structure": "1465 000",
    "latlong": "39.242297, -75.383955"
  },
  {
    "name": "US301/ SR896/BOYDS CORNER RD",
    "route": 84,
    "milepost": 7.98,
    "town": "Marshall village",
    "county": "New Castle County",
    "intersection": "SR896/BOYDS CORNER RD",
    "structure": "1466N084",
    "latlong": "39.30249, -75.41341"
  },
  {
    "name": "US301/ SR896/BOYDS CORNER RD",
    "route": 84,
    "milepost": 15.53,
    "town": "Marshall village",
    "county": "New Castle County",
    "intersection": "SR896/BOYDS CORNER RD",
    "structure": "1466S084",
    "latlong": "39.30256, -75.4135"
  },
  {
    "name": "US301 NB/ DRAWYER CREEK",
    "route": 84,
    "milepost": 7.06,
    "town": "McFarland village",
    "county": "New Castle County",
    "intersection": "DRAWYER CREEK",
    "structure": "1467N084",
    "latlong": "39.29469, -75.42073"
  },
  {
    "name": "US301 SB/ DRAWYER CREEK",
    "route": 84,
    "milepost": 16.45,
    "town": "Marshall village",
    "county": "New Castle County",
    "intersection": "DRAWYER CREEK",
    "structure": "1467S084",
    "latlong": "39.29476, -75.42078"
  },
  {
    "name": "US301 NB/ N/S RAILROAD",
    "route": 84,
    "milepost": 6.22,
    "town": "McFarland village",
    "county": "New Castle County",
    "intersection": "N/S RAILROAD",
    "structure": "1468N084",
    "latlong": "39.29231, -75.42543"
  },
  {
    "name": "US301 SB/ N/S RAILROAD",
    "route": 84,
    "milepost": 17.26,
    "town": "McFarland village",
    "county": "New Castle County",
    "intersection": "N/S RAILROAD",
    "structure": "1468S084",
    "latlong": "39.29242, -75.42541"
  },
  {
    "name": "US301 NB/ SR71/SUMMIT BRIDGE RD",
    "route": 84,
    "milepost": 6.08,
    "town": "McFarland village",
    "county": "New Castle County",
    "intersection": "SR71/SUMMIT BRIDGE RD",
    "structure": "1470N084",
    "latlong": "39.29189, -75.43026"
  },
  {
    "name": "US301 SB/ SUMMIT BRIDGE RD",
    "route": 84,
    "milepost": 17.41,
    "town": "McFarland village",
    "county": "New Castle County",
    "intersection": "SUMMIT BRIDGE RD",
    "structure": "1470S084",
    "latlong": "39.29202, -75.4302"
  },
  {
    "name": "VANDYKE-GREENSPRIN/ GREENSPRING BRANCH",
    "route": 47,
    "milepost": 0.55,
    "town": "Green Bay city",
    "county": "New Castle County",
    "intersection": "GREENSPRING BRANCH",
    "structure": "1471 047",
    "latlong": "39.185543, -75.380104"
  },
  {
    "name": "US 301/ ARMSTRONG CORNER RD",
    "route": 84,
    "milepost": 5.41,
    "town": "Marshall village",
    "county": "New Castle County",
    "intersection": "ARMSTRONG CORNER RD",
    "structure": "1472N084",
    "latlong": "39.28501, -75.43262"
  },
  {
    "name": "US301/ ARMSTRONG CORNER RD",
    "route": 84,
    "milepost": 18.11,
    "town": "Marshall village",
    "county": "New Castle County",
    "intersection": "ARMSTRONG CORNER RD",
    "structure": "1472S084",
    "latlong": "39.28502, -75.43275"
  },
  {
    "name": "CLAYTON DELANY RD./ PROVIDENCE CREEK",
    "route": 40,
    "milepost": 6.6,
    "town": "Dante town",
    "county": "New Castle County",
    "intersection": "PROVIDENCE CREEK",
    "structure": "1473 040",
    "latlong": "39.180498, -75.38276"
  },
  {
    "name": "CLAYTON DELANEY RD/ PAW PAW BRANCH",
    "route": 40,
    "milepost": 5.74,
    "town": "Dante town",
    "county": "New Castle County",
    "intersection": "PAW PAW BRANCH",
    "structure": "1474 040",
    "latlong": "39.181409, -75.392166"
  },
  {
    "name": "BUNKER HILL RD/ US 301",
    "route": "0SR15",
    "milepost": 1.72,
    "town": "McFarland village",
    "county": "New Castle County",
    "intersection": "US 301",
    "structure": "1475 437",
    "latlong": "39.27233, -75.44294"
  },
  {
    "name": "ALLEY MILL RD/ PAW PAW BRANCH",
    "route": 483,
    "milepost": 1.35,
    "town": "Dante town",
    "county": "New Castle County",
    "intersection": "PAW PAW BRANCH",
    "structure": "1476 483",
    "latlong": "39.183249, -75.400813"
  },
  {
    "name": "US301 NB/ TRIB TO SANDY BRANCH",
    "route": 84,
    "milepost": 2.81,
    "town": "McFarland village",
    "county": "New Castle County",
    "intersection": "TRIB TO SANDY BRANCH",
    "structure": "1477N084",
    "latlong": "39.26553, -75.44529"
  },
  {
    "name": "US301 SB/ TRIB TO SANDY BRANCH",
    "route": 84,
    "milepost": 20.72,
    "town": "McFarland village",
    "county": "New Castle County",
    "intersection": "TRIB TO SANDY BRANCH",
    "structure": "1477S084",
    "latlong": "39.2655, -75.44546"
  },
  {
    "name": "US301 RAMP F/ SANDY BRANCH",
    "route": 84,
    "milepost": 0.1,
    "town": "McFarland village",
    "county": "New Castle County",
    "intersection": "SANDY BRANCH",
    "structure": "1479 6617",
    "latlong": "39.26501, -75.45019"
  },
  {
    "name": "US301 NB/ SANDY BRANCH",
    "route": 84,
    "milepost": 2.61,
    "town": "McFarland village",
    "county": "New Castle County",
    "intersection": "SANDY BRANCH",
    "structure": "1480N084",
    "latlong": "39.26471, -75.45008"
  },
  {
    "name": "US301 SB/ SANDY BRANCH",
    "route": 84,
    "milepost": 20.88,
    "town": "McFarland village",
    "county": "New Castle County",
    "intersection": "SANDY BRANCH",
    "structure": "1480S084",
    "latlong": "39.26482, -75.45013"
  },
  {
    "name": "LEVELS RD / SR299/ US301",
    "route": 10,
    "milepost": 4.4,
    "town": "McFarland village",
    "county": "New Castle County",
    "intersection": "US301",
    "structure": "1482 010",
    "latlong": "39.26418, -75.45066"
  },
  {
    "name": "STRAWBERRY LANE/ US 301",
    "route": 299,
    "milepost": 1,
    "town": "McFarland village",
    "county": "New Castle County",
    "intersection": "US 301",
    "structure": "1486 445",
    "latlong": "39.24544, -75.46002"
  },
  {
    "name": "DUPONT PKY/US13 NB/ BLACKBIRD CREEK",
    "route": 13,
    "milepost": 5.28,
    "town": "Bonesteel city",
    "county": "New Castle County",
    "intersection": "BLACKBIRD CREEK",
    "structure": "1488N001",
    "latlong": "39.222199, -75.394131"
  },
  {
    "name": "DUPONT PKW/US13 SB/ BLACKBIRD CREEK",
    "route": 13,
    "milepost": 17.04,
    "town": "Bonesteel city",
    "county": "New Castle County",
    "intersection": "BLACKBIRD CREEK",
    "structure": "1488S001",
    "latlong": "39.222161, -75.394198"
  },
  {
    "name": "MAPLE AVE/ CHESTNUT RUN",
    "route": null,
    "milepost": 0.5,
    "town": "Ettrick village",
    "county": "New Castle County",
    "intersection": "CHESTNUT RUN",
    "structure": "1498 000",
    "latlong": "39.441242, -75.362362"
  },
  {
    "name": "FORREST AVE/ CHESTNUT RUN",
    "route": null,
    "milepost": 0,
    "town": "Ettrick village",
    "county": "New Castle County",
    "intersection": "CHESTNUT RUN",
    "structure": "1499 000",
    "latlong": "39.441412, -75.362081"
  },
  {
    "name": "SR 141/ CHRISTINA R. AMTRAK SR 4",
    "route": 141,
    "milepost": 4.21,
    "town": "Mequon city",
    "county": "New Castle County",
    "intersection": "CHRISTINA R. AMTRAK SR 4",
    "structure": "1501 006",
    "latlong": "39.424354, -75.362986"
  },
  {
    "name": "RAMP SR141N TO SR4/ AYRE ST",
    "route": 141,
    "milepost": 3.59,
    "town": "Mequon city",
    "county": "New Castle County",
    "intersection": "AYRE ST",
    "structure": "1501A6262",
    "latlong": "39.424629, -75.362975"
  },
  {
    "name": "SR 4 TO SR 141 S/ AYRE ST",
    "route": 141,
    "milepost": 11.01,
    "town": "Mequon city",
    "county": "New Castle County",
    "intersection": "AYRE ST",
    "structure": "1501B6263",
    "latlong": "39.424612, -75.363147"
  },
  {
    "name": "ST. ANNS CHURCH RD/ NORFOLK SOUTHERN",
    "route": 447,
    "milepost": 0.3,
    "town": "McFarland village",
    "county": "New Castle County",
    "intersection": "NORFOLK SOUTHERN",
    "structure": "1503 447",
    "latlong": "39.255845, -75.43009"
  },
  {
    "name": "SILVER LAKE RD./ SILVER LAKE SPILLWAY",
    "route": 442,
    "milepost": 0.2,
    "town": "McFarland village",
    "county": "New Castle County",
    "intersection": "SILVER LAKE SPILLWAY",
    "structure": "1504 442",
    "latlong": "39.261701, -75.413599"
  },
  {
    "name": "HIGHLAND AVE/ SR 141",
    "route": null,
    "milepost": 0,
    "town": "Mequon city",
    "county": "New Castle County",
    "intersection": "SR 141",
    "structure": "1505 000",
    "latlong": "39.430173, -75.363901"
  },
  {
    "name": "CHESAPEAKE CITY RD/ US301/SR896",
    "route": 399,
    "milepost": 2.26,
    "town": "Yauco Municipio",
    "county": "New Castle County",
    "intersection": "US301/SR896",
    "structure": "1506 399",
    "latlong": "39.32549, -75.441964"
  },
  {
    "name": "US301 NB/ CONNECTOR RD",
    "route": 84,
    "milepost": 5.67,
    "town": "McFarland village",
    "county": "New Castle County",
    "intersection": "CONNECTOR RD",
    "structure": "1507N084",
    "latlong": "39.2903, -75.43183"
  },
  {
    "name": "US301 SB/ CONNECTOR RD",
    "route": 84,
    "milepost": 17.84,
    "town": "McFarland village",
    "county": "New Castle County",
    "intersection": "CONNECTOR RD",
    "structure": "1507S084",
    "latlong": "39.29034, -75.43192"
  },
  {
    "name": "RAMP TO US301NB/ SANDY BRANCH",
    "route": 84,
    "milepost": 0.1,
    "town": "McFarland village",
    "county": "New Castle County",
    "intersection": "SANDY BRANCH",
    "structure": "1508B6611",
    "latlong": "39.26437, -75.4458"
  },
  {
    "name": "BURNSIDE BLVD/ SR 141",
    "route": null,
    "milepost": 0,
    "town": "Mequon city",
    "county": "New Castle County",
    "intersection": "SR 141",
    "structure": "1509 000",
    "latlong": "39.431265, -75.365018"
  },
  {
    "name": "BOXWOOD RD/SR62/ SR 141",
    "route": 62,
    "milepost": 0.08,
    "town": "La Farge village",
    "county": "New Castle County",
    "intersection": "SR 141",
    "structure": "1527 334",
    "latlong": "39.433219, -75.370171"
  },
  {
    "name": "SR 141/ CSX RAILROAD",
    "route": 141,
    "milepost": 5.54,
    "town": "Mequon city",
    "county": "New Castle County",
    "intersection": "CSX RAILROAD",
    "structure": "1531 006",
    "latlong": "39.434891, -75.371183"
  },
  {
    "name": "GUYENCOURT RD/ WATERWAY",
    "route": 231,
    "milepost": 0.89,
    "town": "Gresham village",
    "county": "New Castle County",
    "intersection": "WATERWAY",
    "structure": "1536 231",
    "latlong": "39.48537, -75.35123"
  },
  {
    "name": "CARR RD/ SHELLPOT CREEK",
    "route": 213,
    "milepost": 0.24,
    "town": "Middleton city",
    "county": "New Castle County",
    "intersection": "SHELLPOT CREEK",
    "structure": "1542 213",
    "latlong": "39.464182, -75.302707"
  },
  {
    "name": "CARR RD/ SHELLPOT CREEK",
    "route": 213,
    "milepost": 0.24,
    "town": "Middleton city",
    "county": "New Castle County",
    "intersection": "SHELLPOT CREEK",
    "structure": "1543 213",
    "latlong": "39.462586, -75.305472"
  },
  {
    "name": "FOULK RD/SR261/ TRIBUTARY -NAAMANS CREEK",
    "route": 261,
    "milepost": 3.88,
    "town": "Mauston city",
    "county": "New Castle County",
    "intersection": "TRIBUTARY -NAAMANS CREEK",
    "structure": "1545 203",
    "latlong": "39.492279, -75.300671"
  },
  {
    "name": "MARKET ST / US13 B/ SHELLPOT CREEK",
    "route": "0013B",
    "milepost": 2.77,
    "town": "Bruce city",
    "county": "New Castle County",
    "intersection": "SHELLPOT CREEK",
    "structure": "1550 024",
    "latlong": "39.454694, -75.310135"
  },
  {
    "name": "PHILA PK/MARKET/ STONEY RUN",
    "route": "0013B",
    "milepost": 4.91,
    "town": "Yauco Municipio",
    "county": "New Castle County",
    "intersection": "STONEY RUN",
    "structure": "1552 024",
    "latlong": "39.46463, -75.291065"
  },
  {
    "name": "LIBRARY AVE/SR 72/ AMTRAK",
    "route": 72,
    "milepost": 8.75,
    "town": "Medford city",
    "county": "New Castle County",
    "intersection": "AMTRAK",
    "structure": "1555 356",
    "latlong": "39.403111, -75.44103"
  },
  {
    "name": "GOV. PRINTZ BLVD/ HOLLYOAK CREEK",
    "route": 13,
    "milepost": 5.84,
    "town": "Howards Grove village",
    "county": "New Castle County",
    "intersection": "HOLLYOAK CREEK",
    "structure": "1558 050",
    "latlong": "39.470826, -75.281693"
  },
  {
    "name": "GOVERNR PRNTZ BLVD/ STONEY CREEK",
    "route": 13,
    "milepost": 4.92,
    "town": "Belvidere town",
    "county": "New Castle County",
    "intersection": "STONEY CREEK",
    "structure": "1559 050",
    "latlong": "39.462955, -75.285314"
  },
  {
    "name": "EDGEMOOR RD / SR3/ NORFOLK SOUTHERN&AMTRAK",
    "route": 3,
    "milepost": 0.19,
    "town": "Elk Mound village",
    "county": "New Castle County",
    "intersection": "NORFOLK SOUTHERN&AMTRAK",
    "structure": "1567 220",
    "latlong": "39.451016, -75.301506"
  },
  {
    "name": "HAY RD./ SHELLPOT CREEK",
    "route": 501,
    "milepost": 0,
    "town": "Yauco Municipio",
    "county": "New Castle County",
    "intersection": "SHELLPOT CREEK",
    "structure": "1567A501",
    "latlong": "39.442087, -75.303882"
  },
  {
    "name": "CONCORD PK/US202/ I 95",
    "route": 202,
    "milepost": 1,
    "town": "Yauco Municipio",
    "county": "New Castle County",
    "intersection": "I 95",
    "structure": "1570 004",
    "latlong": "39.460111, -75.323476"
  },
  {
    "name": "GRUBBS LANDING RD/ WATERWAY",
    "route": 211,
    "milepost": 0.24,
    "town": "Andover town",
    "county": "New Castle County",
    "intersection": "WATERWAY",
    "structure": "1572 211",
    "latlong": "39.473432, -75.274792"
  },
  {
    "name": "NORTH MARKET ST/ BRANDYWINE CREEK",
    "route": "0013B",
    "milepost": 1,
    "town": "Yauco Municipio",
    "county": "New Castle County",
    "intersection": "BRANDYWINE CREEK",
    "structure": "1575 024",
    "latlong": "39.45014, -75.323781"
  },
  {
    "name": "WASHINGTON ST./ BRANDYWINE CK  CONRAIL",
    "route": 43,
    "milepost": 0.98,
    "town": "Yauco Municipio",
    "county": "New Castle County",
    "intersection": "BRANDYWINE CK  CONRAIL",
    "structure": "1576 043",
    "latlong": "39.450825, -75.325393"
  },
  {
    "name": "NORTHEAST BLVD/ BRANDYWINE RIVER",
    "route": 13,
    "milepost": 0.83,
    "town": "Yauco Municipio",
    "county": "New Castle County",
    "intersection": "BRANDYWINE RIVER",
    "structure": "1577 050",
    "latlong": "39.443602, -75.321483"
  },
  {
    "name": "GOV PRINTZ BLVD/ SHELLPOT CREEK",
    "route": 13,
    "milepost": 2.21,
    "town": "Yauco Municipio",
    "county": "New Castle County",
    "intersection": "SHELLPOT CREEK",
    "structure": "1578 050",
    "latlong": "39.451097, -75.305736"
  },
  {
    "name": "LEA BLVD/ SHELLPOT CREEK",
    "route": 502,
    "milepost": 0.08,
    "town": "Elk Mound village",
    "county": "New Castle County",
    "intersection": "SHELLPOT CREEK",
    "structure": "1579 502",
    "latlong": "39.451336, -75.305698"
  },
  {
    "name": "AUGUSTINE CUTOFF/ BRANDYWINE CREEK",
    "route": 49,
    "milepost": 0.85,
    "town": "Yauco Municipio",
    "county": "New Castle County",
    "intersection": "BRANDYWINE CREEK",
    "structure": "1585 049",
    "latlong": "39.453931, -75.332532"
  },
  {
    "name": "SR141/BARLEY MILL/ BRANDYWINE CREEK  RD 260",
    "route": 141,
    "milepost": 0.65,
    "town": "Marathon City village",
    "county": "New Castle County",
    "intersection": "BRANDYWINE CREEK  RD 260",
    "structure": "1587 267",
    "latlong": "39.46236, -75.344178"
  },
  {
    "name": "KENNETT PK/SR52/ SR 141  NEW BRIDGE RD",
    "route": 52,
    "milepost": 4.61,
    "town": "Green Lake city",
    "county": "New Castle County",
    "intersection": "SR 141  NEW BRIDGE RD",
    "structure": "1589 009",
    "latlong": "39.462134, -75.353222"
  },
  {
    "name": "SR141 & RAMP/ SR 2  KIRKWOOD HWY.",
    "route": 141,
    "milepost": 6.05,
    "town": "Ettrick village",
    "county": "New Castle County",
    "intersection": "SR 2  KIRKWOOD HWY.",
    "structure": "1600 006",
    "latlong": "39.441538, -75.371089"
  },
  {
    "name": "RAMP SR2WB-SR141SB/ SR 2  KIRKWOOD HWY.",
    "route": null,
    "milepost": 0.13,
    "town": "Oak Creek city",
    "county": "New Castle County",
    "intersection": "SR 2  KIRKWOOD HWY.",
    "structure": "1601 6003",
    "latlong": "39.441527, -75.371311"
  },
  {
    "name": "VALLEY RD/ MILL CREEK",
    "route": 294,
    "milepost": 1.72,
    "town": "Yauco Municipio",
    "county": "New Castle County",
    "intersection": "MILL CREEK",
    "structure": "1603 294",
    "latlong": "39.465543, -75.42272"
  },
  {
    "name": "BASIN RD. / SR 141/ RAMP SR 2WB TO SR 141SB",
    "route": 141,
    "milepost": 6.08,
    "town": "Oak Creek city",
    "county": "New Castle County",
    "intersection": "RAMP SR 2WB TO SR 141SB",
    "structure": "1604 006",
    "latlong": "39.442082, -75.370719"
  },
  {
    "name": "BASIN RD/SR 141/ RD 333  CENTERVILLE RD",
    "route": 141,
    "milepost": 5.77,
    "town": "Beresford city",
    "county": "New Castle County",
    "intersection": "RD 333  CENTERVILLE RD",
    "structure": "1606 006",
    "latlong": "39.44008, -75.371655"
  },
  {
    "name": "KENNETT PIKE/SR52/ WATERWAY",
    "route": 52,
    "milepost": 3.85,
    "town": "Green Lake city",
    "county": "New Castle County",
    "intersection": "WATERWAY",
    "structure": "1608 009",
    "latlong": "39.46551, -75.36021"
  },
  {
    "name": "LANCASTER PK/SR48/ CSX RAILROAD",
    "route": 48,
    "milepost": 8.02,
    "town": "Yauco Municipio",
    "county": "New Castle County",
    "intersection": "CSX RAILROAD",
    "structure": "1609 237",
    "latlong": "39.445796, -75.345126"
  },
  {
    "name": "FOURTH ST/ CSX RAILROAD",
    "route": null,
    "milepost": 0.44,
    "town": "Yauco Municipio",
    "county": "New Castle County",
    "intersection": "CSX RAILROAD",
    "structure": "1609A000",
    "latlong": "39.450415, -75.343952"
  },
  {
    "name": "SIXTH ST/ CSX",
    "route": null,
    "milepost": 0.44,
    "town": "Yauco Municipio",
    "county": "New Castle County",
    "intersection": "CSX",
    "structure": "1609B000",
    "latlong": "39.450797, -75.343202"
  },
  {
    "name": "NINTH ST/ CSX",
    "route": null,
    "milepost": 2,
    "town": "Yauco Municipio",
    "county": "New Castle County",
    "intersection": "CSX",
    "structure": "1609D000",
    "latlong": "39.451515, -75.341837"
  },
  {
    "name": "SR 72  POSSUM PARK/ MIDDLE RUN",
    "route": 72,
    "milepost": 0.06,
    "town": "McFarland village",
    "county": "New Castle County",
    "intersection": "MIDDLE RUN",
    "structure": "1622 314",
    "latlong": "39.414323, -75.431255"
  },
  {
    "name": "BALTIMORE AVE./ DERRICKSON RUN",
    "route": null,
    "milepost": 0.32,
    "town": "Ettrick village",
    "county": "New Castle County",
    "intersection": "DERRICKSON RUN",
    "structure": "1623 000",
    "latlong": "39.441451, -75.35395"
  },
  {
    "name": "DUPONT RD/ CSX RAILROAD",
    "route": 100,
    "milepost": 0.9,
    "town": "Ettrick village",
    "county": "New Castle County",
    "intersection": "CSX RAILROAD",
    "structure": "1629 027",
    "latlong": "39.44098, -75.35188"
  },
  {
    "name": "KIRKWOOD HWY/SR2/ TRIB TO LITTLE MILL CRK",
    "route": 2,
    "milepost": 12.86,
    "town": "Ettrick village",
    "county": "New Castle County",
    "intersection": "TRIB TO LITTLE MILL CRK",
    "structure": "1631 011",
    "latlong": "39.441911, -75.353888"
  },
  {
    "name": "KIRKWOOD HGWY/SR2/ CSX  SILVER RUN",
    "route": 2,
    "milepost": 13.29,
    "town": "Ettrick village",
    "county": "New Castle County",
    "intersection": "CSX  SILVER RUN",
    "structure": "1632 011",
    "latlong": "39.442345, -75.351467"
  },
  {
    "name": "SOUTH LINCOLN ST/ CANBY PARK VIADUCT",
    "route": 2,
    "milepost": 13.81,
    "town": "Yauco Municipio",
    "county": "New Castle County",
    "intersection": "CANBY PARK VIADUCT",
    "structure": "1633 011",
    "latlong": "39.443193, -75.343821"
  },
  {
    "name": "DUPONT RD / SR100/ DELAWARE VALLEY RR",
    "route": 100,
    "milepost": 1.42,
    "town": "Yauco Municipio",
    "county": "New Castle County",
    "intersection": "DELAWARE VALLEY RR",
    "structure": "1634 027",
    "latlong": "39.443013, -75.352193"
  },
  {
    "name": "KIRKWOOD HWY/SR2/ RED CLAY CREEK & RR",
    "route": 2,
    "milepost": 10.69,
    "town": "Dallas village",
    "county": "New Castle County",
    "intersection": "RED CLAY CREEK & RR",
    "structure": 1640000,
    "latlong": "39.440641, -75.380152"
  },
  {
    "name": "KIRKWOOD HWY/SR2/ RED CLAY CREEK & RR",
    "route": 2,
    "milepost": 19.12,
    "town": "Dallas village",
    "county": "New Castle County",
    "intersection": "RED CLAY CREEK & RR",
    "structure": "1635W011",
    "latlong": "39.440692, -75.38018"
  },
  {
    "name": "KIRKWOOD HWY/SR2/ CENTERVILLE RD.",
    "route": 2,
    "milepost": 11.3,
    "town": "Ettrick village",
    "county": "New Castle County",
    "intersection": "CENTERVILLE RD.",
    "structure": "1640 011",
    "latlong": "39.441467, -75.372164"
  },
  {
    "name": "S. COLLEGE AVE/ AMTRAK & CONRAIL",
    "route": 896,
    "milepost": 7.89,
    "town": "Medford city",
    "county": "New Castle County",
    "intersection": "AMTRAK & CONRAIL",
    "structure": "1641 387",
    "latlong": "39.401243, -75.451094"
  },
  {
    "name": "MARROWS RD/ AMTRAK",
    "route": 351,
    "milepost": 1.01,
    "town": "Gratiot village",
    "county": "New Castle County",
    "intersection": "AMTRAK",
    "structure": "1645 351",
    "latlong": "39.403891, -75.43453"
  },
  {
    "name": "SR273/OGLETOWN RD./ COOL RUN",
    "route": 273,
    "milepost": 1.51,
    "town": "Cottonwood town",
    "county": "New Castle County",
    "intersection": "COOL RUN",
    "structure": 1650000,
    "latlong": "39.410379, -75.423676"
  },
  {
    "name": "SR273/OGLETOWN RD./ COOL RUN",
    "route": 273,
    "milepost": 6.76,
    "town": "Cottonwood town",
    "county": "New Castle County",
    "intersection": "COOL RUN",
    "structure": "1648W018",
    "latlong": "39.410439, -75.42374"
  },
  {
    "name": "S. COLLEGE AVE. NB/ CHRISTINA CREEK",
    "route": 896,
    "milepost": 6.51,
    "town": "Medford city",
    "county": "New Castle County",
    "intersection": "CHRISTINA CREEK",
    "structure": "1649 387",
    "latlong": "39.385676, -75.445132"
  },
  {
    "name": "S. COLLEGE AVE. SB/ CHRISTINA CREEK",
    "route": 896,
    "milepost": 11.32,
    "town": "Medford city",
    "county": "New Castle County",
    "intersection": "CHRISTINA CREEK",
    "structure": "1649A387",
    "latlong": "39.385667, -75.445202"
  },
  {
    "name": "NEWPORT RD./ CSX",
    "route": 332,
    "milepost": 0.25,
    "town": "Kenosha city",
    "county": "New Castle County",
    "intersection": "CSX",
    "structure": "1651 332",
    "latlong": "39.433737, -75.374821"
  },
  {
    "name": "LIMESTONE RD / SR7/ CSX RAILROAD",
    "route": 7,
    "milepost": 0.5,
    "town": "Yauco Municipio",
    "county": "New Castle County",
    "intersection": "CSX RAILROAD",
    "structure": "1655 031",
    "latlong": "39.430585, -75.391046"
  },
  {
    "name": "PALMETTO DR/ ARMY CREEK",
    "route": null,
    "milepost": 0.09,
    "town": "Luck village",
    "county": "New Castle County",
    "intersection": "ARMY CREEK",
    "structure": "1658 000",
    "latlong": "39.382776, -75.375891"
  },
  {
    "name": "MALLARD RD./ ARMY CREEK",
    "route": null,
    "milepost": 0.32,
    "town": "Batesland town",
    "county": "New Castle County",
    "intersection": "ARMY CREEK",
    "structure": "1659 000",
    "latlong": "39.383928, -75.375187"
  },
  {
    "name": "DUPONT HWY/US13/ ARMY CREEK",
    "route": 13,
    "milepost": 8.56,
    "town": "La Valle village",
    "county": "New Castle County",
    "intersection": "ARMY CREEK",
    "structure": "1660 082",
    "latlong": "39.385551, -75.371738"
  },
  {
    "name": "LLANGOLLEN BLVD./ ARMY CREEK",
    "route": "0034G",
    "milepost": 0.06,
    "town": "La Valle village",
    "county": "New Castle County",
    "intersection": "ARMY CREEK",
    "structure": "1661 034G",
    "latlong": "39.38553, -75.371867"
  },
  {
    "name": "US 40 /PULASKI HWY/ TRIB. TO ARMY CREEK",
    "route": 40,
    "milepost": 8.93,
    "town": "Fenwood village",
    "county": "New Castle County",
    "intersection": "TRIB. TO ARMY CREEK",
    "structure": "1662 032",
    "latlong": "39.385239, -75.375529"
  },
  {
    "name": "DUPONT HWY/US13NB/ I295 SOUTH TO US13 SOUTH",
    "route": 33,
    "milepost": 3.55,
    "town": "Fitchburg city",
    "county": "New Castle County",
    "intersection": "I295 SOUTH TO US13 SOUTH",
    "structure": "1666 033",
    "latlong": "39.41542, -75.34225"
  },
  {
    "name": "DUPONT PKWY/US13 S/ WATERWAY",
    "route": 13,
    "milepost": 5.9,
    "town": "McFarland village",
    "county": "New Castle County",
    "intersection": "WATERWAY",
    "structure": "1667S033",
    "latlong": "39.425786, -75.333073"
  },
  {
    "name": "OLD BALTIMORE PIKE/ TRIB. TO CHRISTINA CREEK",
    "route": 26,
    "milepost": 3.17,
    "town": "Jackson village",
    "county": "New Castle County",
    "intersection": "TRIB. TO CHRISTINA CREEK",
    "structure": "1672 026",
    "latlong": "39.382886, -75.435901"
  },
  {
    "name": "BASIN RD/SR 141 NB/ I 95 & I 295 NB & 6099",
    "route": 141,
    "milepost": 3.22,
    "town": "Mequon city",
    "county": "New Castle County",
    "intersection": "I 95 & I 295 NB & 6099",
    "structure": "1675 006",
    "latlong": "39.420125, -75.36049"
  },
  {
    "name": "BASIN RD/SR 141 NB/ I 95 & 6089",
    "route": 141,
    "milepost": 3.52,
    "town": "Mequon city",
    "county": "New Castle County",
    "intersection": "I 95 & 6089",
    "structure": "1676 006",
    "latlong": "39.421531, -75.361251"
  },
  {
    "name": "BASIN RD/SR 141 SB/ I 95 & 6089",
    "route": 141,
    "milepost": 3.23,
    "town": "Mequon city",
    "county": "New Castle County",
    "intersection": "I 95 & 6089",
    "structure": "1677 006",
    "latlong": "39.421103, -75.361968"
  },
  {
    "name": "BASIN RD/SR 141 SB/ I 95 & I 295 & 6099",
    "route": 141,
    "milepost": 8.95,
    "town": "Mequon city",
    "county": "New Castle County",
    "intersection": "I 95 & I 295 & 6099",
    "structure": "1678 006",
    "latlong": "39.415944, -75.361402"
  },
  {
    "name": "BASIN RD/SR141/ US 13",
    "route": 141,
    "milepost": 1.06,
    "town": "Muskego city",
    "county": "New Castle County",
    "intersection": "US 13",
    "structure": "1680 006",
    "latlong": "39.404975, -75.352534"
  },
  {
    "name": "WALNUT ST/US13 NB/ SHOPPING PLAZA DRAINAGE",
    "route": 13,
    "milepost": 0.85,
    "town": "Yauco Municipio",
    "county": "New Castle County",
    "intersection": "SHOPPING PLAZA DRAINAGE",
    "structure": "1683 029",
    "latlong": "39.435491, -75.331214"
  },
  {
    "name": "SOUTH HEALD ST/ NORFOLK SOUTHERN",
    "route": 13,
    "milepost": 0.85,
    "town": "Edgerton city",
    "county": "New Castle County",
    "intersection": "NORFOLK SOUTHERN",
    "structure": "1684 028",
    "latlong": "39.433354, -75.324571"
  },
  {
    "name": "16TH ST/ BRANDYWINE RIVER",
    "route": null,
    "milepost": 1.09,
    "town": "Yauco Municipio",
    "county": "New Castle County",
    "intersection": "BRANDYWINE RIVER",
    "structure": "1685 000",
    "latlong": "39.445405, -75.322406"
  },
  {
    "name": "S. WALNUT ST/US13/ NORFOLK SOUTHERN",
    "route": "0013B",
    "milepost": 0.31,
    "town": "Edgerton city",
    "county": "New Castle County",
    "intersection": "NORFOLK SOUTHERN",
    "structure": "1686 029",
    "latlong": "39.432821, -75.33207"
  },
  {
    "name": "S. WALNUT ST./ CHRISTINA RIVER",
    "route": "0013B",
    "milepost": 1.4,
    "town": "Yauco Municipio",
    "county": "New Castle County",
    "intersection": "CHRISTINA RIVER",
    "structure": "1687 029",
    "latlong": "39.440658, -75.330384"
  },
  {
    "name": "SOUTH MARKET ST/ CHRISTINA RIVER",
    "route": "0013B",
    "milepost": 0.13,
    "town": "Yauco Municipio",
    "county": "New Castle County",
    "intersection": "CHRISTINA RIVER",
    "structure": "1688 029",
    "latlong": "39.441098, -75.331458"
  },
  {
    "name": "NEW SWEDEN ST/ CHRISTINA RIVER",
    "route": "0029B",
    "milepost": 0.02,
    "town": "Yauco Municipio",
    "county": "New Castle County",
    "intersection": "CHRISTINA RIVER",
    "structure": "1691 029B",
    "latlong": "39.43404, -75.33393"
  },
  {
    "name": "NEW SWEDEN ST/ RIVERWALK PATH",
    "route": "0029B",
    "milepost": 0.02,
    "town": "Yauco Municipio",
    "county": "New Castle County",
    "intersection": "RIVERWALK PATH",
    "structure": "1691A029B",
    "latlong": "39.43397, -75.33427"
  },
  {
    "name": "FOURTH STREET/ CHRISTINA RIVER",
    "route": 13,
    "milepost": 0.08,
    "town": "Yauco Municipio",
    "county": "New Castle County",
    "intersection": "CHRISTINA RIVER",
    "structure": "1693 050",
    "latlong": "39.440704, -75.32273"
  },
  {
    "name": "APPLE RD/ CSX RAILROAD",
    "route": 360,
    "milepost": 1.34,
    "town": "Medford city",
    "county": "New Castle County",
    "intersection": "CSX RAILROAD",
    "structure": "1696 360",
    "latlong": "39.40441, -75.455041"
  },
  {
    "name": "VANBUREN STREET/ BRANDYWINE CREEK&FLUME",
    "route": null,
    "milepost": 1.49,
    "town": "Yauco Municipio",
    "county": "New Castle County",
    "intersection": "BRANDYWINE CREEK&FLUME",
    "structure": "1698 000",
    "latlong": "39.452029, -75.330611"
  },
  {
    "name": "SOUTH PARK DR/ MILL RACE",
    "route": null,
    "milepost": 0,
    "town": "Yauco Municipio",
    "county": "New Castle County",
    "intersection": "MILL RACE",
    "structure": "1698A000",
    "latlong": "39.450348, -75.325128"
  },
  {
    "name": "LOVERING AVE/ PEDESTRIAN PATH",
    "route": null,
    "milepost": 0,
    "town": "Yauco Municipio",
    "county": "New Castle County",
    "intersection": "PEDESTRIAN PATH",
    "structure": "1698B000",
    "latlong": "39.453313, -75.333079"
  },
  {
    "name": "OTTS CHAPEL RD/ I 95  DELAWARE TURNPIKE",
    "route": 397,
    "milepost": 1.09,
    "town": "Mount Sterling village",
    "county": "New Castle County",
    "intersection": "I 95  DELAWARE TURNPIKE",
    "structure": "1701 397",
    "latlong": "39.382599, -75.464511"
  },
  {
    "name": "WELSH TRACT RD/ I 95 / JFK MEM HGWY",
    "route": 367,
    "milepost": 1.29,
    "town": "Mount Sterling village",
    "county": "New Castle County",
    "intersection": "I 95 / JFK MEM HGWY",
    "structure": "1702 367",
    "latlong": "39.384803, -75.45318"
  },
  {
    "name": "S. COLLEGE AVE. NB/ I 95 / JFK MEM HGWY",
    "route": 896,
    "milepost": 6.32,
    "town": "Medford city",
    "county": "New Castle County",
    "intersection": "I 95 / JFK MEM HGWY",
    "structure": "1703 387",
    "latlong": "39.384886, -75.444564"
  },
  {
    "name": "S. COLLEGE AVE. SB/ I 95  DELAWARE TURNPIKE",
    "route": 896,
    "milepost": 6.32,
    "town": "Yauco Municipio",
    "county": "New Castle County",
    "intersection": "I 95  DELAWARE TURNPIKE",
    "structure": "1703A387",
    "latlong": "39.384885, -75.444649"
  },
  {
    "name": "I95 SB/JFK MEM HGY/ CHRISTINA CREEK",
    "route": 95,
    "milepost": 30.48,
    "town": "Medford city",
    "county": "New Castle County",
    "intersection": "CHRISTINA CREEK",
    "structure": "1704 056",
    "latlong": "39.384941, -75.443295"
  },